"stop_id","stop_name","stop_lat","stop_lon","stop_desc"
"1","Jayanagara 9th Block,JAYANAGARA 9TH BLOCK,BESIDE HOTEL SRI SAI","12.9197565816171","77.5923588994416"
"2","Jayanagara T Block,JAYANAGARA 4TH T BLOCK,BESIDE HDFC BANK","12.9226893214618","77.5933845451659"
"3","Jayanagara 18th Main,JAYANAGARA 4TH T BLOCK,OPPOSITE OF LAKSHMI AYURVEDIC CENTER","12.9231859777075","77.5887716805949"
"4","Church,JAYANAGARA 4TH T BLOCK,BESIDE POORNIMA CONVENTION","12.9279596029171","77.5876041867249"
"5","Jayanagara 4th Block,TTMC","12.9284826437007","77.58420959115"
"6","Jayanagara 3rd Block,JAYANAGARA 3RD BLOCK,OPPOSITE OF UTL TECHNOLOGIS","12.9317783285","77.5839063618"
"7","Madavan Park,JAYANAGARA 3RD BLOCK,OPPOSITE OF ORIENTAL INSUARENCE","12.9361068271","77.5839236286"
"8","Southend Circle,BASAVANAGUDI,BESIDE GANDHARVA FAMILY BAR","12.9366643075","77.5766457058"
"9","Nagasandra Circle,BASAVANAGUDI,BESIDE PROSPER PARK APPARTMENT","12.9367205700067","77.5721701369447"
"10","Netakallappa Circle,BASAVANAGUDI,OPPOSITE OF GURU RAGHAVENDRA BANK","12.9395624343","77.5721522514"
"11","Basavanagudi Police Station,BASAVANAGUDI,BESIDE ACHIEVE SCHOOL OF EDUCATION","12.94189","77.57358"
"12","Gandhi Bazaar,BASAVANAGUDI,BESIDE ASHOKA PLAZA","12.9457424115","77.5707005896"
"13","Ramakrishna Ashrama,GAVIPURAM EXTENTION,OPPOSITE OF STATE BANK OF INDIA","12.94914747783","77.567561017579"
"14","Bangalore High School,KEMPE GOWDA NAGARA,IN FRONT OF MORE MEGHA STORE","12.9518947285","77.5674634986"
"15","Chamarajapet,CHAMARAJA PETE,BESIDE VENKUS & CO. PETROL BUNK","12.957194522","77.5682954863"
"16","Makkalakoota","12.95850855","77.57402561"
"17","Krishnarajendra Market","12.96161187","77.57527904"
"18","Veterinary Hospital","12.96366","77.56843"
"19","Goodshed Road Gate,COTTONPET,BESIDE BALAGANGADHARANATHA SWAMYJI FREE HOSTEL SCHOOL","12.9681187418378","77.5680068206731"
"20","Majestic,Opposite to City Railway Station","12.97736","77.57074"
"21","Ananda Rao Circle,IN FRONT OF DIRECTOR OF MEDICAL EDUCATION","12.9817447954723","77.574481312945"
"22","Central,SHESHADRI PURAM,OPPOSITE TO HOTEL GREEN ARCHID","12.9899747663903","77.572098665973"
"23","Malleshwaram Circle,MALLESHWARAM,BESIDE R.R.GOLD PALACE","12.9978901319732","77.5713099939793"
"24","Malleshwaram 8th Cross,MALLESHWARAM,BESIDE FLOWER MARKET","12.99966","77.57128"
"25","Malleshwaram 15th Cross,MALLESHWARAM,BESIDE SAI MANDIR","13.005030714","77.5711547211"
"26","Malleshwaram 18th Cross,MALLESHWARAM,BESIDE KARNATAKA EXAMINATION AUTHORITY","13.0090816878","77.5710476004"
"27","Tata Institute","13.01565694","77.56289701"
"28","Yeshawanthapura TTMC","13.017420746122461","77.55707759428026"
"29","Govardhan Talkies,YESHAWANTHPURA,BESIDE BSNL OFFICE","13.01856","77.55320"
"30","Yeshwanathapura new railway station","13.02311","77.55029"
"31","JPNagara 6th Phase,JP NAGARA 6TH PHASE,OPPOSITE OF THE BIG MARKET","12.9064924294071","77.5776125399524"
"32","JP Nagara 15th Cross,JP NAGARA 2ND PHASE,BESIDE CELL CITY","12.9071376264641","77.5856277850601"
"33","RVDental College,JP NAGARA 1ST PHASE,BESIDE R.V.COLLEGE","12.9111515544","77.5856779609"
"34","Marenahalli,JP NAGARA 1ST PHASE,BESIDE 3M CAR CARE","12.9153368901","77.5856925454"
"35","Jayanagara 5th Block,JAYANAGARA 5TH BLOCK,BESIDE AIR WAAVE","12.9174407478","77.5835442636"
"36","Telephone Exchange,JAYANAGARA 4TH BLOCK,BESIDE BSNL OFFICE","12.9237699229","77.5837743469"
"37","Vijaya College,BASAVANAGUDI,OPPOSITE OF INFORMATICS","12.9390512221","77.5799340103"
"38","RV Teachers College,BASAVANAGUDI,BESIDE MEGA AGENSIS","12.944399463","77.5799635984"
"39","Lalbagh West Gate,V.V.PURAM,BESIDE HDFC BANK","12.9495261854038","77.5798964898135"
"40","Minarva Circle,V.V.PURAM","12.9536740969716","77.5798819155073"
"41","Town Hall,OPPOSITE OF RANI CHANNAMMA STATUE","12.96354088","77.5850038882"
"42","Corporation,CORPORATION,IN FRONT OF BANAPPA PARK","12.9685279448","77.5864692125"
"43","Mysore Bank,VASANTHA NAGARA,BESIDE ALL INDIA COUNCIL FOR TECHNICAL","12.9746610671","77.5819961261"
"44","Telephone Exchange,VASANTHA NAGARA,BESIDE TELEPHONE EXCHANGE","12.9823366273","77.5885294843"
"45","RC College,VASANTHA NAGARA,BESIDE R.C.COLLEGE","12.9839449814296","77.5871066739705"
"46","Shivananda Stores,VASANTHA NAGARA,BESIDE SEA ROCK RESTAURANT","12.9867516022091","77.5791462398814"
"47","Swastik,SHESHADRI PURAM,OPPOSITE OF SESHADRIPURAM POLICE STATION","12.987743702505","77.574388523525"
"48","Yeshwanthpura","13.0174217","77.55977236"
"49","Yeshwanthpura Market,YESHAWANTHAPURA,IN FRONT OF SYNDICATE BANK ATM","13.0204587802","77.5556880981"
"50","Bombay Dyeing,YESHAWANTHAPURA,IN FRONT OF RAGHU MEDICALS","13.0250683241","77.5574772153"
"51","Mathikere Post Office,MATHIKERE,IN FRONT OF SAI INTERNATIONAL ELECTRONICS","13.0292071434388","77.5591417368623"
"52","Mathikere,MATHIKERE,IN FRONT OF VINAYAKA CONDIMENTS","13.0345050409528","77.5573473945702"
"53","Chowdeshwari Bus Stand JP Park,MATHIKERE, CHOUDESHWARI BUS STOP,IN FRONT OF LOK ANAND APARTMENTS","13.0331773963","77.554171728"
"54","City Civil Court","12.973503","77.582949"
"55","Maharani College","12.9771210719","77.5858749356"
"56","Vidhana Soudha,BESIDE VIDHANA SOUDHA","12.9805501085","77.5932044908"
"57","Shivajinagar Bus Station","12.98368012","77.6035693"
"58","Mayohall","12.973971368031","77.6112179095079"
"59","LIFESTYLE","12.96672052762","77.6095167036518"
"60","Baldwin Girls High School","12.96302808","77.60669667"
"61","Shanthi Nagara Bus Station,SHANTHI NAGAR,OPPOSITE TO SHANTHINAGAR TTMC","12.95446","77.59148"
"62","Double Road Shanthinagar","12.95844066","77.59301104"
"63","Pallavi talikes","12.9679567997072","77.5915412577218"
"64","Vasanthapura,VASANTHAPURA,IN FRONT OF VASANTHA VALLABHARAYA SWAMY TEMPLE","12.8954248058008","77.5522463865215"
"65","Yadalam Nagara,YADALAM NAGARA,IN FRONT OF SRI MANIKANTA SOUND SYSTEM","12.8961664673146","77.5485178576245"
"66","Subramanyapura Co-operative Society,SUBRAMANYA PURA,BESIDE K.E.B.","12.8976035001522","77.5462201163579"
"67","Subramanyapura Police station,SUBRAMANYA PURA,IN FRONT OF YADALAM ADI LAKSHMAMMA SUBBAIAH SHETTY MIDDLE SCHOOL","12.8990713078011","77.5437220869559"
"68","Uttarahalli,UTHARAHALLI,IN FRONT OF PUBLIC LIBRARY UTHARAHALLI","12.9049496166","77.5433301553"
"69","Uttarahalli KR Hospital,UTHARAHALLI,IN FRONT OF I.C.I.C.I.BANK","12.9069658550541","77.5459173927738"
"70","Chikkalsandra Canara Bank Colony,CHIKKALASANDRA,BESIDE STATE BANK OF MYSORE","12.9092132341356","77.5492530819738"
"71","Chikkalsandra Aralimara,CHIKKALASANDRA,IN FRONT OF C.S.HOSPITAL","12.911746062612","77.5525682756659"
"72","Gowdana palya,TELECOM NAGARA,BESIDE SRI BALAJI C.D.CENTRE","12.91153153402","77.5555543528847"
"73","Prarthana School,PADMANABHA NAGARA","12.9120117736236","77.5585499293628"
"74","Kadirenahalli Village,KADIRENAHALLI,IN FRONT OF BELURU IYENGAR BAKERY","12.9156865847009","77.5616728897017"
"75","kadirenahalli cross,BANASHANKRI 2ND STAGE TEACHERS COLONY,BESIDE S.A.F00T WEAR","12.9138894193","77.5668682996"
"76","BANASHANKARI TTMC","12.9175629124167","77.5734471158981"
"77","Sangam Circle,JAYANAGARA 8TH BLOCK,BESIDE INDIAN TYRE CENTER","12.9176249821","77.5773779489"
"78","Jayanagara 40th Cross","12.91998","77.58013"
"79","Jayanagara Bus Stand,JAYANAGARA 4TH BLOCK,BESIDE JAIN TEMPLE","12.9276755545","77.5835826527"
"80","Telephone Exchange,JAYANAGARA 5TH BLOCK,SAMSKRUTI BANQUET HALL","12.9225728642309","77.5837942150779"
"81","Jayanagara 40th Cross,JAYANAGARA 5TH BLOCK,BESIDE LIC OFFICE","12.9197768255601","77.5804915754097"
"82","Sangam Circle,JAYANAGARA 8TH BLOCK,BESIDE BANGALORE WATER SUPPLY","12.9170141820828","77.5787540947362"
"83","Hunase Mara Banashankari","12.919900624495623","77.57417740075687"
"84","Monotype,BANASHANKARI, 2ND STAGE,BESIDE AVK & NSVK INSTITUTIONS","12.9214927275","77.5709460955"
"85","Banashankari BDA Complex,BANASHANKARI 2ND STAGE,BISIDE HDFC BANK","12.9243880045","77.5648419745"
"86","Indira Nursing Home,BANASHANKARI 2ND STAGE,OPPOSITE OF MUTHOOT FINANCE","12.9290343738636","77.5643238898193"
"87","Devegowda Petrol Bunk,BANASHANKARI 3RD STAGE,BESIDE BESCOM","12.9225007351","77.5604034215"
"88","Padmanabha Nagara,PADMANABHA NAGARA,OPPOSITE OF STATE BANK OF INDIA","12.9176150183253","77.5596909614448"
"89","Prarthana School,PADMANABHA NAGARA,OPPOSITE OF PRARTHANA SCHOOL","12.9114839800429","77.557893057513"
"90","Gowdana palya,GOWDANA PALYA,OPPOSITE OF SRI BALAJI C.D.CENTRE","12.9114419835698","77.5554283059612"
"91","Chikkallasandra Aralimara,CHIKKALASANDRA,IN FRONT OF BESCOM OFFICE","12.9115026724","77.5520117115"
"92","Chikkalsandra Canara Bank Colony,CHIKKALASANDRA,OPPOSITE OF STATE BANK OF MYSORE","12.9089185794022","77.5489971389656"
"93","Uttarahalli KR Hospital,UTHARAHALLI,OPPOSITE OF I.C.I.C.I.BANK","12.9068846979029","77.5461399925385"
"94","Uttarahalli,UTHARAHALLI,BESIDE BMTC MAIN BUS STAND","12.9051595451281","77.5434314121948"
"95","Subramanyapura Police station,SUBRAMANYA PURA,IN FRONT OF POST OFFICE","12.8986638772969","77.5441428547101"
"96","Subramanyapura Co-operative Society,SUBRAMANYA PURA,OPPOSITE OF K.E.B.","12.897523376624","77.5466024877059"
"97","Yadalam Nagara,YADALAM NAGARA,IN FRONT OF SMASHANA","12.8962010060364","77.5487467673517"
"98","MG Road ","12.97640668","77.60853047"
"99","Trinity Circle","12.97077488","77.61970002"
"100","Military Accounts Office","12.967042","77.62110442"
"101","Commando Hospital","12.96405494","77.62623263"
"102","Domlur","12.96111122","77.63817474"
"103","KODIHALLI","12.96006425","77.6472361"
"104","Manipal Hospital","12.95968934","77.65072057"
"105","Murgeshpalya,Opp.Sir MV COLLAGE","12.9592778","77.65805598"
"106","Rajeshwari Talkies","12.9593182","77.66035173"
"107","HAL Main Gate","12.95864344","77.66527478"
"108","Helicopter Division","12.95663685","77.67562008"
"109","HAL Kalyanamantapa","12.95478348","77.68347827"
"110","Borewell","12.95521833","77.68778156"
"111","Maratahalli","12.95643585","77.69509886"
"112","Maratahalli Bridge","12.95693","77.70178"
"113","Spice Garden","12.95647795","77.70905589"
"114","Kundalahalli Gate","12.95588772","77.71617865"
"115","Thubarahalli","12.95589908","77.72170524"
"116","Siddapura","12.95631467","77.7317545"
"117","Ramgundanhalli","12.95706646","77.74031524"
"118","Varthuru Kodi","12.95763027","77.74570483"
"119","Brook Bond","12.96403558","77.74831013"
"120","White Field","12.97077297","77.74996681"
"121","Old Sai Baba Hospitals","12.97354479","77.75031785"
"122","Munish Hospital","12.97704662","77.75092716"
"123","Hope Form","12.9843197","77.75256358"
"124","Prajwal School","12.99144629","77.75599869"
"125","Kadugodi","12.99572781","77.75804887"
"126","Central Silk Board","12.91747","77.62423"
"127","Madivala Mosque,KORAMANGALA 2ND BLOCK,IN FROUNT OF UJWAL FAB INDIA","12.9250663610466","77.6189798180655"
"128","Koramangala Water Tank,KORAMANGALA RING ROAD,OPPOSITE OF KARNATAKA BANK","12.9292936809","77.6214331482"
"129","BDA Complex koramangala,KORAMANGALA RING ROAD,OPPOSITE OF BDA COMPLEX","12.9308975867092","77.6221266193162"
"130","Canara Bank Koramangala,KORAMANGALA RING ROAD,BESIDE SPICE HOT SHOP","12.9350559041","77.6240192167"
"131","Jn of 80 and 100 Feet Road,KORAMANGALA RING ROAD,OPPOSITE OF OASIS CENTER & LIFE STYLE","12.9381218366","77.6280230843"
"132","Sreenivagilu,KORAMANGALA RING ROAD,BESIDE ASC NORTH COMPLEX","12.9386060592","77.633225061"
"133","Military Bridge","12.94598","77.63996"
"134","Jn of New Bridge,DOMLURU,BESIDE GINGER COFFEE DAY","12.9523257259","77.6400564797"
"135","Domlur,DOMLURU,OPPOSITE OF HDFC BANK","12.9569417238","77.6413058862"
"136","Domlur Bridge","12.96055591","77.64141459"
"137","Doopanahalli,INDIRA NAGARA,BESIDE RELIANCE DIGITAL","12.9637509305","77.6414803974"
"138","New Horizon School,HAL 2ND STAGE,BESIDE NAC HOME","12.9665001401509","77.641334856271"
"139","HAL 12th Main,HAL 2ND STAGE,BESIDE AXIS BANK","12.9694406999685","77.6412141592392"
"140","HAL 6th Main,HAL 2ND STAGE,BESIDE BANK OF BARODA","12.9737052664321","77.6409116375754"
"141","Indiranagar Police Station,INDIRA NAGARA,BESIDE POLICE STATION & K.F.C.","12.9781894293","77.6402802765"
"142","Indiranagar Double Road,INDIRA NAGARA,BESIDE MANYVARA, 13TH CROSS","12.978089566662","77.6359556004383"
"143","Lakshmipura Ulsoor,INDIRA NAGARA,BESIDE BBMP BURIAL GROUND","12.978241438810007","77.63198642591169"
"144","Halasur","12.978018","77.628324"
"145","Manipal Centre,M.G.ROAD,BESIDE MILITARY GATE","12.9754740279","77.6134497207"
"146","maniksha pardeground,M.G.ROAD,BESIDE PARADE GROUND","12.9772753345665","77.6078696411928"
"147","Shivajinagar Bus Station,SHIVAJI NAGARA,BESIDE BMTC BUS STAND","12.9830382138989","77.6032352181259"
"148","Forties Hospital","12.98770683","77.59439581"
"149","Vasantha Nagara","12.99271569","77.59496712"
"150","Jaymahal Extension","13.00040117","77.59471058"
"151","Munireddy Palya","13.00695655","77.59247657"
"152","TV Tower Munireddy palya","13.0103045","77.59026532"
"153","Mekhri Circle","13.01449816","77.58192714"
"154","Kendriya Vidyalaya CPRI","13.01465113","77.57510678"
"155","Yeshwanthpura Circle","13.01755362","77.55952284"
"156","Maharani College,BESIDE SJP COLLEGE","12.9770464894431","77.5859164592567"
"157","Vidhana Soudha","12.9805239695223","77.593171232177"
"158","Indian Express","12.98420536","77.59761828"
"159","DSouza Circle","12.9666875062731","77.6094521290397"
"160","Boldwin Girls High School","12.96553533596","77.6027927241769"
"161","Richmond Circle","12.965617","77.595484"
"162","Poornima Talkies,NEW MISSION ROAD,BESIDE JAYALAKSHMI BAKARY","12.96095","77.58773"
"163","Kempegowda Bus Station","12.978062","77.572342"
"164","St Marthas Hospital,BESIDE POLICE HEAD QUARTERS","12.9698050953","77.5872509088"
"165","Corporation Office","12.9683774123389","77.5894331605758"
"166","Museum Kasturba Road","12.97385356","77.59541642"
"167","MG Road Metro Station","12.97568622","77.60585152"
"168","Maniksha Parade Ground","12.97727673","77.60794341"
"169","KR Circle,VASANTHA NAGARA,BESIDE SJP COLLEGE","12.9771169682379","77.5852455232248"
"170","Cauvery Bhavana,VASANTHA NAGARA,BESIDE PETROL BUNK","12.9735362995","77.5815098919"
"171","Sampige Road Metro Station,Malleshwaram,Metro Stand","12.990633","77.570665"
"172","Central,SHESHADRI PURAM,BESIDE CENTRAL CONVETION HALL","12.9896777496","77.5717054121"
"173","Peenya 2nd stage,PEENYA 2ND STAGE,IN FRONT OF M.P.P.TEHNOLOGIES PVT LTD","13.0107668722415","77.5067250900116"
"174","Rajagopalanagar Rajni Farms,PEENYA INDUSTRIAL AREA 2ND STAGE,IN FRONT OF MANJUNATHA REFRESHMENT","13.0139706843","77.5089234486"
"175","Peenya 14th Cross,PEENYA INDUSTRIAL AREA 2ND STAGE,OPPOSITE OF SISTEMS MANUFACTURING PVT LTD","13.0170412268","77.5058460329"
"176","Brundavana Peenya 2nd Stage,PEENYA INDUSTRIAL AREA 2ND STAGE,IN FRONT OF NEW TIMBER INDUSTRY","13.0202670023","77.5079948176"
"177","NTTF,N.T.T.F.CROSS,IN FRONT OF NEW TIMBER INDUSTRY","13.0249445233","77.5109549705"
"178","Rolling Mill,PEENYA INDUSTRIAL AREA,BESIDE ARVIND MOTORS","13.0265822408254","77.5147200617649"
"179","TVS Cross ,PEENYA INDUSTRIAL AREA,IN FRONT OF MALLIPORE LIMITED","13.0285953620956","77.5195686195263"
"180","System Jalahalli Cross,PEENYA INDUSTRIAL AREA,IN FRONT OF SISTEMS MANUFACTURING PVT LTD","13.0350020451929","77.5179111770754"
"181","Jalahalli Cross","13.039625308193823","77.51822920291522"
"182","T Dasarahalli","13.04299089","77.5124183"
"183","Tumkur Road 8th Mile,8TH MILE,BESIDE DURGA SAW MILL","13.0460511012537","77.5074918591098"
"184","Widia School Bagalagunte,T.DASARAHALLI,BESIDE ESHWARI MEDICALS","13.0511002806152","77.5076984613592"
"185","Bagalagunte,BAGALAGUNTE,BESIDE MATAJI STEEL CENTER","13.0562517699","77.5073038973"
"186","Bone Mill,BONE MILL,BESIDE PAVAN MEDICALS","13.063843","77.505073"
"187","Sapthagiri College Chikka Banawara,KIRLOSKAR LAYOUT,BESIDE NEW UDUPI UPAHARA","13.0668690461258","77.5032413827418"
"188","Janapriya Apartments,JANAPRIYA APARTMENTS,BESIDE OPEN AREA","13.0734588211303","77.5030843996981"
"189","Chikkabanawara Railway Gate,CHIKKA BANAVARA,BESIDE GREEN COMFORT CAMPUS HOME","13.0755066779","77.50461163"
"190","Chikkabanawara ,CHIKKA BANAVARA,BESIDE SUMA TRADERS","13.0819034579747","77.5002161861082"
"191","Kundalahalli Gate,KUNDALAHALLI,OPPOSITE OF HYPER CITY","12.9582354904395","77.7155640221852"
"192","BEML Gate,KUNDALAHALLI,OPPOSITE OF HYPER CITY","12.9611035064","77.7164579462"
"193","AECS Layout,KUNDALAHALLI,OPPOSITE OF BROOK FIELD","12.9651556590154","77.7182496208807"
"194","Graphite India","12.9781837149316","77.7114300218927"
"195","SAP ITPL,WHITEFIELD,IN FRONT OF SAP","12.9777191230945","77.7150244916221"
"196","Vydehi Hospital,WHITEFIELD,BESIDE TTMC BUS STAND","12.9766568495804","77.7267842661891"
"197","Sai Baba Hospital,WHITEFIELD,OPPOSITE OF SRI SATHYA SAI HOSPITAL","12.9836607694662","77.7284611729069"
"198","Pattandur Agrahara Gate,IN FRONT OF APPOLO PHARMACY","12.9879409972407","77.7337396116193"
"199","ITPL,OPPOSITE OF I.T.P.L. MAIN GATE","12.987639165538","77.7373727362813"
"200","B P L,OPPOSITE OF CINEMA HALL","12.9853534332523","77.7479886796028"
"201","Hope Farm","12.98260711","77.75221137"
"202","Ramagondanahalli Varthuru","12.9569131","77.73978427"
"203","Cauvery Bhavana,K.R. MARKET,OPPOSITE OF BWSSB","12.972107688","77.5824879762"
"204","JP Nagara 1st Phase,SHAKAMBARI NAGARA,BESIDE APOLLO PHARMACY","12.9114097171","77.5741377566"
"205","Indira Gandhi Circle,SHAKAMBARI NAGARA,BESIDE S.B.M.LAYOUT","12.9108850099","77.5789394137"
"206","Eliyas Nagar,ILYASA NAGARA,BESIDE M.S.MADEENA STORE","12.9056105771291","77.5690436930723"
"207","Jn Of Ring Road,ILYAS NAGARA,BESIDE R.R.DIAGNOSTIC CENTER","12.907533925","77.5713143963"
"208","City Railway Station,BESIDE CITY RAILWAY STATION","12.9782250524","77.5697478186"
"209","Power House,JP NAGARA 6TH PHASE,BESIDE R.G.V.TELECOM PVT.LTD.","12.9064376216545","77.5801305761234"
"210","Banashankari Bus Station","12.9182","77.5733"
"211","Kadirenahalli Cross,BANASHANKRI 2ND STAGE KAVERI NAGARA,BESIDE KAVERI GLASS & PLYWOODS","12.9138101711892","77.5674308493233"
"212","Dayananda Sagar College,KUMARASWAMY AYOUT 2ND STAGE,IN FRONT OF STATE BANK OF INDIA","12.9094217870598","77.5653938159416"
"213","Kumaraswamy Layout Police Station,KUMARA SWAMY LAYOUT,IN FRONT OF KUMARA SWAMY LAYOUT POLICE STATION","12.9051648841249","77.5627168543969"
"214","Kumaraswamy Layout ","12.902954","77.561565"
"215","Canara Bank","12.90086","77.55987"
"216","ISRO Layout,ISRO LAYOUT,IN FRONT OF BHARTHIYA STATE BANK","12.8988754191","77.5583100412"
"217","Vasanthapura,VASANTHAPURA,BESIDE OPEN AREA","12.896358215994","77.5521097812413"
"218","Yarab Nagara,BANASHANKRI 2ND STAGE KAVERI NAGARA,OPPOSITE OF BRAHMALINGESHWARA CONDIMENTS","12.9158521097766","77.5692397263453"
"219","Cauvery Nagara,BANASHANKRI 2ND STAGE KAVERI NAGARA,BESIDE VINAYAKA SABHA BHAVANA","12.9197953744017","77.5691342827306"
"220","Monotype,BANASHANKARI, 2ND STAGE,OPPOSITE OF THALAM AL-TIUS","12.9217735212","77.5705823209"
"221","Padmanabha Nagara,PADMANABHA NAGARA,IN FRONT OF DEVAGIRI SHISHUVIHARA","12.9185338011166","77.5596461996074"
"222","Devegowda Petrol Bunk,BANASHANKARI 3RD STAGE,BESIDE BIG MEGA MART","12.9228205048","77.5602472667"
"223","Kempegowda Medical  Hospital,BANASHANKARI 3RD STAGE,OPPOSITE OF KEMPEGOWDA MEDICAL COLLEGE","12.9269235302","77.5613870379"
"224","Indira Nursing Home Tyagarajanagar,BANASHANKARI 2ND STAGE,BESIDE INDIRA NURSING HOME","12.9292645119","77.5641326141"
"225","Post Office,BANASHANKARI, 2ND STAGE,OPPOSITE POST OFFICE, BANASHANKARI, 2ND STAGE","12.9263340309","77.5698779896"
"226","Kadirenahalli Village,KADIRENAHALLI,IN FRONT OF STATE BANK OF MYSORE","12.9154762341651","77.5617826712008"
"227","KR Circle,BESIDE DISTRICT TREASURY OFFICE","12.9737512954","77.586767273"
"228","Corporation,CORPORATION,IN FRONT OF BBMP, CORPORATION","12.9646411384543","77.588017663533"
"229","Subbaiah Circle","12.96269204","77.59098089"
"230","KH Road","12.95784771","77.59304091"
"231","Shanthinagar Bus Stand,SHANTHI NAGARA,BESIDE BMTC BUS STAND BIG BAZAAR","12.9548539594","77.5919630472"
"232","Wilson Garden police Station,WILSON GARDEN,BESIDE KITTUR RANI CHANNAMMA PARKLAKKASANDRA","12.9513778165","77.5951920077"
"233","Wilson Garden 12th Cross,WILSON GARDEN,OPPOSITE OF PRESTIGE KITECHEN SMART","12.9471488684475","77.5979451093575"
"234","Lakkasandra,OPPOSITE OF NIMAHANS CONVENTION CENTER","12.9428192228","77.5974125415"
"235","Nimhans Hospital,IN FRONT OF NIMHANS HOSPITAL GATE","12.9396341834","77.5978167169"
"236","Bangalore Dairy Circle","12.937057207119426","77.60221380758287"
"237","Muneshwara Temple,SADGUNTE PALYA,BESIDE CHOUSIA ITI POLYTECHNIC COLLEGE","12.9362709448","77.6071822364"
"238","Jn of Hosur Road,OPPOSITE OF STAPLE","12.932184767","77.6131518278"
"239","St John Hospital","12.92959711","77.61590361"
"240","Koramangala Water Tank","12.9269013528006","77.6227486203364"
"241","Krupanidhi College","12.92377","77.62812315"
"242","Madiwala MARKET","12.92174684","77.62170076"
"243","Roopena Agrahar","12.91189777","77.62612268"
"244","Bommanahalli","12.90534806","77.63018404"
"245","Garvebhavi Palya","12.89627974","77.63574793"
"246","Kudlu Gate","12.889887","77.6396839"
"247","Singasandra","12.87873262","77.64657216"
"248","Hosa Road","12.87069872","77.65292842"
"249","PESCollege","12.85872647","77.6624131"
"250","Konappana Agrahara,ELECTRONIC CITY POST,IN FRONT OF LAVAKUSHA BULDING","12.8548020311","77.6650205534"
"251","Electronic City,ELECTRONIC CITY,OPPOSITE OF N.T.T.F. INSTITUTE","12.8468519003666","77.6705451744255"
"252","SIEMENS","12.84471806","77.66026941"
"253","Shikaripalya Cross","12.838972","77.658935"
"254","Electronic City Wipro Gate","12.83791127","77.65832738"
"255","Jayanagara 38th Cross,JAYANAGARA 5TH BLOCK,OPPOSITE OF NEW AGE STYLES","12.9209943395","77.5837977324"
"256","Rani Saraladevi School,JAYANAGARA 1ST BLOCK,BESIDE SATYASAI TOURS & TRAVELS","12.9374320898","77.5849452149"
"257","Ashoka Pillar,JAYANAGARA 1ST BLOCK,BESIDE HEMACHANDRA KALYANA MANTAPA","12.9423873712521","77.5850394668992"
"258","Siddapura,SIDDAPURA,OPPOSITE OF GOVT.PRIMARY SCHOOL","12.9463054947087","77.5885461215374"
"259","Mallige Hospital Siddapura,SIDDAPURA,OPPOSITE OF MALLIGE HOSPITAL","12.9478302598","77.5916053075"
"260","Wilson Garden 10th Cross,WILSON GARDEN,BESIDE KARNATAKA HANDBALL ASSOCIATION","12.9466232657","77.5960406754"
"261","Wilson Garden Police Station,WILSON GARDEN,OPPOSITE OF SYNDICATE BANK","12.9506564699","77.5958107598"
"262","Shanthi Nagara Bus Station","12.95479395","77.59255908"
"263","Akkithimmana halli,SHANTHI NAGARA,OPPOSTIE OF METRO POLES","12.9619205743","77.5977940019"
"264","Nanjappa Circle,SHANTHI NAGARA,BESIDE KARNATAKA HOUSING ASSOCIATION","12.96069","77.60076"
"265","Elgin Flour Mill","12.95816","77.60597"
"266","Johnson Market","12.9632185","77.60668677"
"267","St Patric Church","12.9699175","77.60517779"
"268","Kadugondanahalli","13.0206054642617","77.619054709347"
"269","Kaval Byrasandra,RT NAGARA POST,BESIDE ANJANEYA TEMPLE","13.0195829695808","77.607696448824"
"270","P&T Quarters,KAVALABYRASANDRA, RT NAGARA POST,BESIDE POST & TELECOM QUARTERS","13.0213569339281","77.604727513688"
"271","Pushpanjali Talkies,RT NAGARA,IN FRONT OF LAL BAHADUR SHASTRI GOVT FIRST GRADE COLLEGE","13.0220447670728","77.6024356077672"
"272","Dinnur,RT NAGARA,IN FRONT OF ANUGRAHA WINES","13.0239751643592","77.5986717831884"
"273","HMT Layout,RT NAGARA","13.02488","77.59344"
"274","RTNagara Police Station,RT NAGARA,BESIDE POLICE STATION","13.024358","77.592839"
"275","Rahmath Nagara,RT NAGARA POST OFFICE,OPPOSITE OF NANDINI HOTEL","13.0174405828187","77.5918496221246"
"276","Matada Halli,RT NAGARA POST OFFICE,BESIDE SHRI RADHAKRISHNA THEATER","13.013597","77.593661"
"277","CIL,JC NAGARA, RT NAGARA,IN FRONT OF KARANTH ENCLAVE","13.0117182154","77.5933557004"
"278","JC Nagara,JC NAGARA,BESIDE POST OFFICE","13.0067990441","77.592745414"
"279","YMCA Nandi Durga Road,BENSON TOWN,BESIDE ANJANEYA TEMPLE","13.0005462281","77.599671213"
"280","Canara Bank,BENSON TOWN,BESIDE MASJID-E-KHADIRA","12.9954547918785","77.6013351242356"
"281","Contonment Railway Station","12.99375735","77.59742175"
"282","CSI","12.98975151","77.59951372"
"283","Indian Express,SHIVAJI NAGARA,BESIDE GOSHA HOSPITAL","12.9842580948","77.5989951286"
"284","Philomena Hospital,AUSTIN TOWN,BESIDE SCQUR CHURCH","12.96477","77.61024"
"285","Austin Town,AUSTIN TOWN,BESIDE SAMUDAYA BHAVANA","12.9616120365","77.6132932305"
"286","ASC Center,ASTINTOWN CROSS","12.96223451","77.61915074"
"287","Vannarapete","12.95642557","77.62114466"
"288","Vivekanagara,VIVEKA NAGARA,BESIDE BUS STAND","12.9542741673113","77.623091069313"
"289","Ravi Tent,VIVEKA NAGARA,BESIDE FOOD CITY","12.9513002001","77.6225182693"
"290","Ejipura Market,VIVEKA NAGARA,BESIDE DHANALAKSHMI PHARAM","12.950721027776","77.6238513301735"
"291","Ejipura,EJIPURA,OPPOSITE OF ROSEWAY LIQUORS","12.9467435461","77.6287941355"
"292","Jayanagara Church","12.92716","77.58969"
"293","Jayanagara General Hospital,JAYANAGARA 4TH T BLOCK,BESIDE UDUPI UPAHAR","12.9271084066086","77.5929766663388"
"294","Carmel Convent Jayanagara,JAYANAGARA 4TH T BLOCK,BESIDE CARMEL CONVENT","12.9263383057","77.5972074363"
"295","Pump House Jayanagar East End,JAYANAGARA 9TH BLOCK,BESIDE SURABHI ARTS","12.9219916184","77.5970787741"
"296","Jayadeva Hospital,JAYANAGARA 9TH BLOCK,HEALTHY INTERNATIONAL HOMEOPATHY","12.9168577865","77.5974690355"
"297","MICO Checkpost","12.91394365","77.60012383"
"298","JP Nagara 3rd Phase","12.90830179","77.60039072"
"299","Bilekalli","12.9007721","77.60115104"
"300","IIM Appolo Hospital","12.89651799","77.60008346"
"301","Arakere Gate Byrapura","12.8902041","77.5981027"
"302","Jn of 80 Feet Road","12.88429","77.59663"
"303","Shanthinikethan Layout","12.88447","77.60329"
"304","Shiridi Sai Temple BDA 80ft RD","12.88349","77.60622"
"305","Jn of BDA Ring Road","12.88234","77.61000"
"306","Yelenahalli","12.86789","77.61610"
"307","Vijayanagara TTMC,Vijayanagara,TTMC","12.965824","77.535237"
"308","Maruthi mandira,VIJAYANAGARA,BESIDE MATHA AIR TRAVELS","12.9678038321","77.5361144263"
"309","Vijayanagara,VIJAYANAGARA,OPPOSITE OF WATER TANK, VIJAYANAGARA BUS STOP","12.9731889114907","77.5379243681713"
"310","Malagala Bus Stand,MALAGALA,IN FRONT OF NOVELTY FURNISHINGS","12.9720741399666","77.5129772096709"
"311","Nagarabhavi BDA Complex,NAGARABHAVI 2ND STAGE,BESIDE BDA COMPLEX NAGARABHAVI","12.9791073316173","77.5106893306258"
"312","D Group Employees Layout Cross,Annapoorneshwari Nagara,Image Granites","12.969975","77.496453"
"313","Muddaiahnapalya,Mallathhalli,Aralimara","12.971697","77.487854"
"314","Vidyanikethan Public School","12.95074","77.48687"
"315","Mallathalli Cross,Mallathhalli","12.957512","77.503067"
"316","Papareddy Palya Bus Stand,Nagarabhavi ,Steel Shop","12.972026","77.507689"
"317","NAGARBHAVI CIRCLE,NAGARABHAVI CIRCLE,OPPOSITE OF DURGA PARAMESHWARI HOTEL","12.9596976483107","77.5197751157473"
"318","Income Tax Layout,VIJAYANAGARA,BESIDE A.M.HOSPITAL","12.960007260431","77.531479891572"
"319","Income Tax Layout,VIJAYANAGARA,BESIDE FINE FAIR TEXTILE AND GARMENTS","12.9598049376605","77.5316086538841"
"320","Nagarabhavi Circle,NAGARABHAVI,OPPOSITE OF PADMASHREE B.ED COLLEGE","12.958432506603181","77.5188917085419"
"321","Papareddy Palya,PAPAREDDY PALYA,OPPOSITE OF SHARADA TIMBERS","12.972274404","77.5080512278"
"322","Mallathahalli Cross,MALLATHAHALLI,OPPOSITE OF BHAGAVAN BUDDA HOMEOPATHIC MEDICAL COLLEGE","12.957662","77.503290"
"323","Muddana Palya","12.966375","77.487767"
"324","D Group Employees Layout","12.978245","77.498576"
"325","Nagarabhavi BDA Complex,NAGARABHAVI 2ND STAGE,BESIDE ADESHWAR ELECTRO WORLD","12.9795230186178","77.5105517560529"
"326","Malagala,RAMAKRISHNAIAH LAYOUT,IN FRONT OF KRISHNA TRADING COMPANY","12.978401373787","77.5166612503219"
"327","Vijayanagara,VIJAYANAGARA,BESIDE OM ARCADE, SONY SHOW ROOM","12.9718423169","77.5378719438"
"328","Maruthi mandira,VIJAYANAGARA,BESIDE BUNNY BAKERY","12.9676027503","77.5363256503"
"329","Brigade Road","12.97152762","77.60672572"
"330","St. Patrics Church","12.96580821","77.60687003"
"331","Anepalya","12.95249647","77.60487302"
"332","MICO Gate","12.94455123","77.60283669"
"333","Ashrama,OPPOSITE OF BHARATH PETROL BUNK","12.9257646482","77.6004831679"
"334","Gurappana palya","12.91949205","77.60016424"
"335","BPL","12.887442","77.597034"
"336","Hulimavu Gate","12.88070285","77.5959377"
"337","Meenakshi Temple","12.874185","77.594659"
"338","Loyala School","12.87119325","77.5936447"
"339","Kalena Agrahara","12.86628369","77.59193714"
"340","Gottigere High School","12.86195091","77.59047392"
"341","Gottigere","12.8551655","77.58881403"
"342","TJohn College Cross","12.85057711","77.58843441"
"343","Basavanapura Gate","12.84642508","77.5883265"
"344","Koli Farm Gate Bannerghatta Road","12.84146763","77.58861309"
"345","Tulip Resort Cross","12.83543","77.58912"
"346","Kalkere","12.83260399","77.58909187"
"347","AMC College Bannerghatta Road","12.83053139","77.5881611"
"348","Jalli Machine Bannerghatta Road","12.82564977","77.58632219"
"349","Vijaya Bank Banneragatta Circle","12.81564763","77.58317322"
"350","Bannerghatta Circle","12.81364433","77.58101253"
"351","Sampigehalli,BHANNERGAHTTA POST","12.80572254","77.57900176"
"352","Bannerghatta National Park","12.80064982","77.57781608"
"353","Basappa Circle","12.95590","77.57734"
"354","Lalbhagh Main Gate,AL-AMEEN COLLEGE,OPPOSITE OF LALBHAG MAIN GATE","12.9540865123","77.585585257"
"355","Lalbhag Society,WILSON GARDEN,OPPOSITE OF HOPCOMS","12.9512698576","77.59145041"
"356","Wilson Garden 7th Cross,WILSON GARDEN,OPPOSITE OF ABHAYA HOSPITAL","12.94705","77.59445"
"357","Ashrama Bismilla Nagara Bannerghatta Road","12.92629948","77.60053595"
"358","Jal Bhavan","12.92460","77.60044"
"359","Jayadeva Hospital,JP NAGARA 3RD PHASE,BESIDE MAAS UNIQUE TOWER","12.9165828601","77.5993031636"
"360","Papareddy Palya,PAPAREDDY PALYA,BESIDE SHARADA TIMBERS","12.972424597671","77.507900189381"
"361","Deepa Complex,PAPAREDDY PALYA,BESIDE DEEPA COMPLEX","12.966771697496","77.5050348297882"
"362","Ambedkar College,80FEET OUTER RING ROAD,IN FRONT OF FISH PRODUCT SALES COUNTER","12.9602591973","77.5049728062"
"363","NGEF Layout,NGEF LAYOUT,IN FRONT OF TEJASWINI PHARMA","12.96094557","77.50972370"
"364","Nrupatunga Nagar,N.G.E.F.LAYOUT,IN FRONT OF TWINKLERS VIDYANIKETHAN","12.9580731131","77.5099148601"
"365","Nagarabhavi Village,NAGARABHAVI VILLAGE,BESIDE DANVANTHARI HOMEO CLINIC","12.9569323193693","77.5158314680568"
"366","Jyothi Nagara,JYOTHI NAGARA,IN FRONT OF BASAVESHWARA TRADERS","12.9593768460442","77.5216505504991"
"367","Chandra Layout,CHANDRA LAYOUT,OPPOSITE OF CHANDRAGIRI PALACE","12.9583006987302","77.5264990663102"
"368","Chandra Layout Ganesh temple,CHANDRA LAYOUT,BESIDE POST OFFICE","12.9583657254","77.5288030598"
"369","Chandra Public School Chandra Layout,CHANDRA LAYOUT,BESIDE SPIRIT JUNCTION","12.960409401","77.529523233"
"370","Attiguppe,RPC LAYOUT,OPPOSITE OF SYNDICATE BANK","12.9579615806462","77.5340494826403"
"371","Deepanjalinagara Depot-16,DEEPANJALI NAGARA,OPPOSITE OF DEPOT 16","12.951521","77.537268"
"372","Bapuji Nagara","12.95357632","77.54215453"
"373","New Guddadahalli","12.95576633","77.54564716"
"374","Azad Nagar","12.95724423","77.55133839"
"375","Sirsi Circle,SIRSI CIRCLE","12.9604612","77.55693463"
"376","Vinayaka Talkies KR Market","12.96328","77.56717"
"377","Krishnarajendra Market,KR MARKET,OPPOSITE TO CHANDRA BHAVAN HOTEL","12.964049","77.577499"
"378","Town Hall","12.96393155","77.58425661"
"379","Corporation","12.9681895","77.58924259"
"380","St Josephs School","12.97020734","77.59439816"
"381","StJosephs College","12.9698730761906","77.6029042488889"
"382","Ele B Stn","12.9742610050145","77.6121409056843"
"383","Trinity Circle,HALASURU,BESIDE M.G.ROAD & A STAR CENTER","12.9728141986","77.6204735879"
"384","Halasur,HALASURU,BESIDE R.V.LIQUORS","12.97845837524402","77.62958584884336"
"385","Indiranagar Police Station,INDIRANAGARA,BESIDE JEALOUS-21","12.9784550375257","77.6412663355162"
"386","Chinmaya Mission Hospital,INDIRANAGARA,BESIDE POSTAL OFFICERS QUARERS C & D BLOCK","12.977823878453","77.6467377579719"
"387","Tippasandra,INDIRANAGARA,BESIDE SPENCERS SUPER, COLUMBIA ASIA","12.9742833582143","77.6469358921975"
"388","Tippasandra Market,THIPPASANDRA,BESIDE VINAYAKA MEDICALS","12.9725489952","77.6510896627"
"389","Ganesha Temple,HAL 3RD STAGE,OPPOSITE OF GANESHA TEMPLE","12.9721461914545","77.6539379783698"
"390","BEML,BEML,IN FRONT OF BEML LIMITED","12.971357","77.658866"
"391","LRDE","12.980845822","77.6565969922"
"392","DRDO Qts,C.V.RAMAN NAGARA,OPPOSITE OF MES SERVICE CENTER NO-1","12.9843127448","77.6610519737"
"393","CV Raman Nagara","12.9856594688952","77.6641256561944"
"394","Kalyananagara Bus Stand,KALYAN NAGAR,OPPOSITE OF PANASONIC/GIRIAS SHOW ROOM","13.0265504122","77.6383386925"
"395","Kalyana Nagara,KALYANA NAGARA,OPPOSITE OF INDO ASIAN ACADEMY DEGREE COLLEGE","13.0263655653666","77.6364009012997"
"396","Hennur Cross","13.03161234","77.63600713"
"397","Hennur Depot","13.02563268","77.63170509"
"398","Kacharakanahalli,KACHARAKANAHALLI,OPPOSITE OF CHENNAKESHAVA TEMPLE","13.0213929963494","77.6299128841016"
"399","Jyothi School Lingarajapura,KACHARAKANAHALLI,IN FRONT OF BETHEL CHURCH","13.0152573064","77.6289124042"
"400","Lingarajapuram,KARIYANA PALYA,IN FRONT OF SUCHI RUCHI VEG","13.0122261984856","77.6258237523957"
"401","Lingarajapura Bridge","13.00847","77.62294"
"402","CHARLES SCHOOL,SAGAYAPURAM,BESIDE ST CHARLES CONVENT","13.0061727577252","77.6210301136742"
"403","Sindhi Colony,FRAZER TOWN,IN FRONT OF BBMP CHOULTRY","12.9955239918196","77.6167961574939"
"404","Thoms Cafe,FRAZER TOWN,OPPOSITE OF CAR TRENDZ","12.9910735041","77.61426704"
"405","Lavanya Talkies,BESIDE POPULAR AUTOMOBILES","12.9859104194","77.6154710166"
"406","Hasanath College,HALASURU,BESIDE HARANATHA COLLEGE","12.9791990295","77.6150634885"
"407","B Station","12.97370413","77.6136414"
"408","Domlur Bridge,DOMLURU,BESIDE CHEFGEN REJENCY FAMILY RESTAURANT","12.9579067323","77.6414734405"
"409","Sreenivagilu,KORAMANGALA RING ROAD,BESIDE MUNESHWARA TEMPLE","12.9384031183354","77.6315364112204"
"410","Jn of 80 and 100 Feet Road,KORAMANGALA RING ROAD,BESIDE SONY CENTER","12.9370173533","77.6268397272"
"411","Canara Bank Koramangala,KORAMANGALA RING ROAD,BESIDE CANARABANK","12.9342348967","77.6238464657"
"412","BDA Complex koramangala,KORAMANGALA RING ROAD,BESIDE BDA COMPLEX","12.9311505239","77.6224947162"
"413","Koramangala Water Tank,KORAMANGALA RING ROAD,BESIDE WATER TANK","12.9278939869","77.621227121"
"414","Central Silk Board,MADIWALA,IN FRONT OF SHRI KRISHNA BHAVAN HOTEL","12.917724099987","77.6239001832664"
"415","Jagajeevanram Nagara,J.J.NAGARA,BESIDE B.B.M.P. P.U.C. COLLEGE","12.9646651447","77.5549010374"
"416","Maramma Temple,K.H.RANGANATHA COLONY,OPPOSITE OF MARIYAMMA TEMPLE","12.9631460924","77.5590106007"
"417","Sirsi Circle","12.96162","77.56075"
"418","Mahathma Gandhi Statue,OPPOSITE OF CHANNASWAMY STADIUM","12.9774177509555","77.5987497513117"
"419","Forties Hospital,BESIDE SIGMA MALL","12.9873576751216","77.5945894600345"
"420","Vasantanagara Ambedker Bhavan","12.99303303","77.59523844"
"421","Contonment Railway Station,SHIVAJI NAGARA,BESIDE RAILWAY STATION","12.9938964453","77.5971457455"
"422","Bamboo Bazaar,SHIVAJI NAGARA,BESIDE PETROL BUNK","12.9921024665","77.6039510965"
"423","Coles Park","12.99586569","77.60687147"
"424","Doddi,FRAZER TOWN,IN FRONT OF MANJUNATHA WINES","13.0025174240069","77.6120647658496"
"425","Canara Bank ,FRAZER TOWN,IN FRONT OF SANTHOSH JEWELERS","13.0068584718","77.6124637574"
"426","Muslim Colony Kadugondanahalli","13.0107233428943","77.6152363317099"
"427","Venkateshapura","13.0154636270568","77.6175103499722"
"428","Kadugondanahalli,K.G.HALLI,IN FRONT OF SAGAR MEDICALS","13.0202171534151","77.6189133333243"
"429","Railway Gate ","13.0251654265854","77.6196786844606"
"430","Arabic college,ARABIC COLLEGE,OPPOSITE OF ARABIC COLLEGE","13.0300875753","77.6208586525"
"431","Nagavara,NAGAVARA,IN FRONT OF VASAVI GENERAL STORES","13.037943095","77.6233579684"
"432","Mahathma Gandhi Statue","12.97739184","77.5987907"
"433","Vasantha Nagara Temple","12.99291601","77.59512713"
"434","Bamboo Bazaar","12.991807344916","77.6017418253195"
"435","Coles Park,FRAZER TOWN,OPPOSITE OF PEEKAYS SUPER MARKET","12.9958806847535","77.6068903971442"
"436","Doddi","12.99977317","77.60998228"
"437","Sarai Palya Nagawar","13.0475790062657","77.6286054354913"
"438","Thanisandra","13.0564197780387","77.6328891943577"
"439","Ramakrishna Hegde Nagara","13.0715656271948","77.6335698330161"
"440","Makkala Koota,KEMPEGOWDA HOSPITAL","12.95633805","77.57385819"
"441","Mahila samaja","12.95352974","77.57385973"
"442","National College","12.94888559","77.57382583"
"443","Basavanagudi Police Station","12.94159052","77.57391823"
"444","Southend Circle","12.93568464","77.58019997"
"445","Nanda Talkies","12.93260362","77.58022046"
"446","Yediyur","12.930759174945821","77.576389597451"
"447","Deepak Nursing Home","12.92586013214612","77.57716743806531"
"448","Sarakki","12.91011837","77.57298349"
"449","Jaraganahalli Cross","12.90132489","77.57347506"
"450","Yelachenahalli","12.89747621","77.5715878"
"451","Metro konanakunte","12.89464043","77.56912545"
"452","Konanakunte Cross","12.89003185","77.56409231"
"453","Doddakallasandra","12.88554084","77.55593"
"454","Gubbalala Gate","12.88422874","77.55169671"
"455","Raghuvanahalli Gate","12.88096287","77.54626975"
"456","Byana Palya, VAJARAHALLI","12.8752346","77.54327198"
"457","Thalaghattapura","12.8694189","77.53683493"
"458","Vajramuneshwara Gate","12.86368441","77.53220763"
"459","Jyothi Farm","12.85940277","77.52864196"
"460","Silk Farm","12.85380434","77.52357906"
"461","Kuppa Reddy Kere","12.84211582","77.51766345"
"462","Shanimahathma Temple","12.83671028","77.51591295"
"463","Lakshmipura","12.83343807","77.51378395"
"464","DAYANANDA SAGAR COLLEGE","12.82480385","77.51383164"
"465","Udi Palya Kanakapura Road","12.82008989","77.51323879"
"466","Saalu Hunase","12.81133233","77.51175886"
"467","Kaggalipura","12.80000743","77.50836957"
"468","HSR BDA COMPLEX","12.9127755482","77.6380090322"
"469","14th Main HSR Layout","12.917437","77.638223"
"470","Jakkasandra","12.92512051","77.63691743"
"471","Koramangala","12.92482847","77.63459642"
"472","John Fowler,KORAMANAGALA,OPPOSITE OF TOSHIBHA COMPANY, IN FRONT OF KSRP QUARTERS","12.9241064563","77.6308006793"
"473","Koramangala Water Tank,KORAMANGALA,OPPOSITE OF AGARWAL EYE HOSPITAL & STATE BANK OF INDIA","12.9271197486003","77.6215891432537"
"474","Jn of 80 and 100 Feet Road","12.93776508","77.62638959"
"475","BMTC Depot-15 Koramangala","12.94108294","77.62407271"
"476","KRM Police station,KORAMANGALA,BESIDE PANCHAMUKI GANESH TEMPLE,OPPOSITE OF SAGAR FAST FOOD HOTEL","12.9416964669","77.6217623055"
"477","Koramangala Kalyana Mantapa,KORAMANGALA,BESIDE PLAY GROUND, PLATINUM, VLCE","12.9372335225","77.6184639428"
"478","Jyothi nivas College,KORAMANGALA,OPPOSITE OF BHARAT PETROL BUNK","12.9353911802","77.6145985443"
"479","Audugudi Police Station","12.9389456246477","77.6096954194422"
"480","Adugodi","12.94270683","77.6078821"
"481","MICO Gate,OPPOSITE OF MANOKAMAN CERAMIC","12.9442565261695","77.6033180374975"
"482","Wilson Garden 14th cross,WILSON GARDEN,IN FRONT OF SAGAR PHARM","12.946545986533","77.6002529662034"
"483","Wilson Garden 10th Cross,WILSON GARDEN,IN FRONT OF G.S.POER SYSTEM","12.9473503018374","77.5982841703754"
"484","CorporationPallavi,SAMPANGIRAMA NAGARA,IN FRONT OF PALLAVI TALKIES","12.9678889923","77.5911699515"
"485","Maharani College,VASANTHA NAGARA,BESIDE MAHARANI COLLEGE","12.9788719676","77.5847737212"
"486","Shivananda store,NEHARU NAGARA,BESIDE DESAI NURSING HOME","12.98717","77.57870"
"487","Swastik,NEHARU NAGARA,BESIDE MALLESHWARM POLICE STATION","12.9879342860333","77.5749711851166"
"488","Devaiah Park,NAGAPPA BLOCK,BESIDE CANARA BANK","12.9962364212","77.5641176943"
"489","Harishchandra Ghat,GAYTHRI NAGARA,BESIDE HARISHCHANDRA GHAT","12.996857933985","77.5607189660281"
"490","Mariyappana Palya,RAJIAJINAGARA 2ND BLOCK,BESIDE GAYATHRIDEVI PARK","12.9984676","77.5557275768"
"491","Navarang Talkies,RAJAJINAGARA,BESIDE GOKUL VEG HOTEL","12.9980712198","77.5509731937"
"492","Rajaji Nagar 1st Block,RAJAJINAGARA,BESIDE DIACON HOSPITAL","13.0038023338056","77.5499202599005"
"493","Mahalakshmi Layout Entarence,MAHALAKSHMI LAYOUT,IN FRONT OF ASSISTANT COMMISSIONER OF COMMERCIAL TAXES","13.0076989252","77.5478180777"
"494","Srinivasa Temple,MAHALAKSHMI LAYOUT,OPPOSITE OF SRINIVASA TEMPLE","13.0082578187105","77.5451206006909"
"495","Mahalakshmi layout,MAHALAKSHMI LAYOUT,IN FRONT OF CHETHANA CLINIC, DCB BANK ATM","13.0124988221","77.5439064112"
"496","Shankar Nagara,SHANKARA NAGARA,IN FRONT OF SYNDICATE BANK ATM, OPPOSITE OF SYNDICATE BANK","13.0155811960922","77.5439644792972"
"497","Krishnananda Nagara Mahalakshmi Nagara,KRISHNANANDA NAGARA,IN FRONT OF GANESHA TEMPLE","13.0180656743723","77.5412950298052"
"498","Jn Of Kanteerava Studio,KRISHNANANDA NAGARA,IN FRONT OF MALABAR BEKARY","13.02147","77.53536"
"499","Devasthana,NANDINI LAYOUT,IN FRONT OF SHANIMAHATHMA TEMPLE","13.0208168465131","77.5291600944555"
"500","Sonal Garments,PEENYA INDUSTRIAL AREA,OPPOSITE OF SONAL GARMENTS","13.0215568934","77.5263869762"
"501","Laggere Cross,PEENYA 2ND STAGE, 3RD PHASE,OPPOSITE OF URBAN ECO PARK, POLLUTION CONTROL BOARD","13.0228990470922","77.522871601588"
"502","Rajagopalanagara Police Station,PEENYA 2ND STAGE, 3RD PHASE,IN FRONT OF INDOVEDIC NUTRIENTS PVT LTD","13.0236263589571","77.5217239023852"
"503","8th Mile T Dasarahalli","13.04439409","77.50929851"
"504","KR Circle,BESIDE REVENUE OFFICE","12.9745915812","77.5868195761"
"505","Poornima Talkies,K.S.GARDEN,BESIDE KAVERI ENTERPRISES","12.9608759377","77.5882853195"
"506","Agara Cross","12.84868508","77.52194114"
"507","Saala Doddi","12.83023991","77.51297014"
"508","Gandhinagara Kaggalipura,GANDHI NAGARA,IN FRONT OF STAR GARAGE","12.7899441216","77.5044586603"
"509","APS College Somanahalli,SOMANAHALLI,IN FRONT OF POWER GRID CORPORATION LTD","12.7856635675","77.5023356918"
"510","KEB Office Somanahalli,SOMANAHALLI,OPPOSITE OF A.P.S. COLLEGE OF ENGINEERING","12.7823852541837","77.4994424715284"
"511","Sommanahalli Gate Kanakapura Road,SOMANAHALLI,IN FRONT OF KAVITHA HARDWARE","12.7805036626265","77.4968194161096"
"512","Nelaguli Cross,NELAGULI,OPPOSITE OF ULTRA DESIGNER TILES","12.7739371173","77.4922168907"
"513","Hosa Doddi Gate,HOSADODDI,IN FRONT OF NARAYANA GURUKULA","12.7643735334","77.4874589872"
"514","Nettigere Gate,NETTIGERE,OPPOSITE OF MOTORS","12.760754271859","77.4865337427094"
"515","Bolare,BOLARE,IN FRONT OF GENARAL STORES","12.7538383193","77.4846285023"
"516","Ravugodlu Cross,RAVGODLU,IN FRONT OF ARALIMARA","12.748644766161","77.4866284658028"
"517","Gantakanadoddi Cross,GANTAKANA DODDI,IN FRONT OF NISHU VIKAS SWEETS & BAKERY","12.7414340246","77.4883395061"
"518","Kaggalahalli,KAGGALAHALLI,IN FRONT OF MATHAJI BANKER`S & JEWELERS","12.7282670606","77.4871962983"
"519","New Gabadi,GABBADI,BESIDE BASAPPA TEMPLE","12.7129828278","77.4814777449"
"520","Kembepalya","12.7030622587","77.4809953663"
"521","Harohalli Depot","12.6975289453","77.4782362115"
"522","Petrolbunk","12.6836411978754","77.4724818143954"
"523","Harohalli","12.6799569965258","77.4689311279205"
"524","Katriguppe ,KATHRIGUPPE,IN FRONT OF ANNA KUTEERA HOTEL","12.926089414491","77.5502994550546"
"525","Vivekanada Nagara,VIVEKANANDA NAGARA,IN FRONT OF M.M.BAR & RESTAURANT","12.9305098113","77.5535196997"
"526","Vidya peeta Circle,VINAYAKANAGARA,IN FRONT OF KARNATAKA RAKSHANA VEDIKE OFFICE","12.9362775665","77.5596184563"
"527","Srinivasa Nagara,SRINIVASANAGARA,IN FRONT OF SHANKARA TIMBERS","12.9376141785696","77.5577776227898"
"528","Apex Bank,BANASHANKARI 1ST STAGE HANUMANTHA NAGARA,BESIDE ANJU FURNITURES","12.9417131485616","77.5556886899016"
"529","Nagendra Block,BANASHANKARI 3RD STAGE NAGENDRA BLOCK,BESIDE SWASTIK HARD WARE","12.94184","77.55324"
"530","Avalahalli BDA Park,AVALAHALLI BDA,OPPOSITE OF BDA PARK","12.9430989269","77.5426519755"
"531","Deepanjali nagara BMT-16,DEEPANJALI NAGARA,OPPOSITE OF DEPOT 16","12.9514347731227","77.5371147674969"
"532","Attiguppe,RPC LAYOUT,BESIDE SYNDICATE BANK","12.9577823349965","77.5338304262479"
"533","Vijayanagara,VIJAYANAGARA,IN FRONT OF INDRAPRASTHA HOTEL","12.9719527904","77.5376221631"
"534","Manu Vana Vijayanagara,VIJAYANAGARA,BESIDE STATE BANK INDIA","12.974431","77.54451"
"535","Magadi Road Dasarahalli","12.97889215","77.54065813"
"536","KHB Colony","12.981106","77.535581"
"537","Kamakshipalya","12.98432339","77.52803302"
"538","Summanahalli Magadi Road,SUMANAHALLI,UNDER THE FLYOVER","12.987259","77.519228"
"539","Kottige Palya Magadi Road","12.98781438","77.5153472"
"540","Aralimara Sunkadakatte,SUNKADA KATTE,OPPOSITE OF STATE BANK OF MYSORE","12.9920521753105","77.5045882047209"
"541","Vigneshwara Nagara,SUNKADA KATTE,IN FRONT OF SALLAPURADAMMA TEMPLE","12.9943562765","77.5041714963"
"542","Neelagiri Thopu,SUNKADA KATTE,IN FRONT OF S.S.K.CHOULTRY","12.9960294098096","77.5024757034255"
"543","Hegganahalli Cross,HEGGANA HALLI,OPPOSITE OF AMBIKA BAKERY & SWEETS","12.999754394348","77.5039556699754"
"544","Hegganahalli,HEGGANA HALLI,OPPOSITE OF HODAY BADRIYA","13.00540548804","77.5050712454059"
"545","Dairy Hegganahalli,HEGGANA HALLI,IN FRONT OF I.I.F.L.GOLD LOAN","13.0079324555196","77.5055348989669"
"546","Jalahalli Cross,PEENYA INDUSTRIAL AREA,OPPOSITE OF INDIAN BANK","13.0384499487","77.5183223281"
"547","Indiranagar Police Station,INDIRA NAGARA,BESIDE JEALOS-21","12.9786697854936","77.6406957623119"
"548","Binnamangala,INDIRANAGARA,BESIDE LEO MOTORS, MARUTI SUZUKI","12.9834931014548","77.6404798012878"
"549","Byappanahalli rly gate","12.9915234266245","77.6432972294754"
"550","Old Bayappanahalli,MARUTHI SEVA NAGARA,IN FRONT OF BBMP OFFICE","12.9949466122642","77.6436471302701"
"551","Krishnarajendra Market,KR MARKET","12.960407","77.576347"
"552","Uttarahalli","12.9087427359924","77.5360993863397"
"553","Channasandra,CHANASANDRA,IN FRONT OF ANNAPOORNA RETAIL PVT LTD","12.9031718385669","77.5211657435288"
"554","BEML Layout 5th Stage,B.E.M.L. GATE LAYOUT,BESIDE PAVAN ELECTRICALS & HARDWARE SHOP","12.9097278656324","77.5209439881808"
"555","Double Road,B.E.M.L. DOUBLE ROAD CIRCLE,OPPOSITE OF SMART SUPER MARKET","12.9147559662792","77.5206086455884"
"556","BEML Complex,B.E.M.L. LAYOUT 3RD STAGE,OPPOSITE OF RAMANJANEYA TEMPLE,B.E.M.L. COMPLEX","12.919581","77.520303"
"557","BEML Gate,B.E.M.L. LAYOUT 3RD STAGE,IN FRONT OF RAJESHWARI NAGARA, RESIDENTS WELFARE ASSOCIATION","12.9227341442083","77.5183255102379"
"558","Ideal Homes,RAJA RAJESHWARI NAGARA,IN FRONT OF NIMISHAMBHA DEVI TEMPLE","12.924834403709","77.5178525351756"
"559","Raja Rajeshwari Temple,RAJESHWARI NAGARA,BESIDE RAJA RAJESHWARI TEMPLE","12.9271689053675","77.5110982818663"
"560","RRSchool,IN FRONT OF RAJESHWARI SCHOOL","12.9283958292623","77.5141714849855"
"561","PETROL BUNK,RAJA RAJESHWARI NAGARA,OPPOSITE OF INDIAN OIL PETROL BUNK","12.9329858110307","77.5161832203805"
"562","Rajarajeshwarinagara Gate","12.9361908","77.51639508"
"563","Bangalore Univercity Gate Mysore Road,MYSORE ROAD,IN FRONT OF UNIVERSITY GATE, RAILWAY BRIDGE","12.9359533545","77.5126559939"
"564","Ladies Hostel University Campus,BANGALORE UNIVERSITY,IN FRONT OF CIVIL ENGINEERING DEPARTMENT UNIVERSITY","12.9421360977","77.5056441966"
"565","Library University,BANGALORE UNIVERSITY,IN FRONT OF MUNESHWARA SWAMY TEMPLE","12.9438268952","77.5044993125"
"566","Bangalore University Administrative Block,BANGALORE UNIVERSITY,NEAR HEAD OFFICE BANGALORE UNIVERSITY","12.9490639083","77.5010607205"
"567","University Quarters","12.95176","77.50015"
"568","Koli Farm University Quatres","12.95199","77.49796"
"569","Press Layout Ullal Road","12.95035","77.49131"
"570","Amma ashrama cross","12.94946","77.48908"
"571","Manganahalli Cross","12.95135","77.48446"
"572","Hullalu","12.95551","77.48018"
"573","Hullala Bar Stop","12.961506","77.478696"
"574","Hullala Upanagara","12.96243","77.47524"
"575","Kengeri Satelite Town,KENGERI UPANAGARA,IN FRONT OF KARUNA BAKERES & SWEETS","12.9225098714","77.4861416873"
"576","Railway Station Kengeri","12.92237251","77.48444049"
"577","Jn of Kommaghatta Road","12.91611473","77.48218418"
"578","Ganesha Temple","12.91229468","77.48073544"
"579","Kengeri Police Station","12.91048265","77.48319013"
"580","Kengeri TTMC","12.91390887","77.48630136"
"581","Mylasandra Gate","12.91856635","77.49101582"
"582","RV College","12.92549401","77.49936587"
"583","Jayaram Das Factory","12.93094676","77.50609263"
"584","Bangalore University Gate Mysore Road","12.93579871","77.51334378"
"585","Nayandahalli","12.94319771","77.52599614"
"586","Jn of Nayandahalli","12.94425","77.53012"
"587","Virabhadranagara Cross,VEERABHADRA NAGARA,BESIDE SRINIVASA BAR & RESTAURANT","12.9380825240388","77.5337524901504"
"588","PES College","12.93505","77.53694"
"589","Hosakerehalli Junction,BANASHANKARI 3RD STAGE DWARAKA NAGARA,OPPOSITE OF R.K.COLOUR LAB","12.9336273763","77.539477665"
"590","Hosakerehalli Cross,BANASHANKARI 3RD STAGE,OPPOSITE OF N.C.E.R.T.","12.9300788138","77.5439977739"
"591","Janatha Bazar,BANASHANKARI 3RD STAGE,OPPOSITE OF SHIVA SHANKARA SABHANGANA","12.9284066241","77.5460153818"
"592","Banashankari 3rd Stage 3rd Phase,BANASHANKARI 3RD STAGE,IN FRONT OF LITTLE MILLENIUM NURSERY SCHOOL","12.9250089023591","77.5508426665613"
"593","Kamakya Talkies,BANASHANKARI 3RD STAGE,IN FRONT OF BMTC DEPOT-13","12.9237692524","77.5541000627"
"594","Devegwada Petrol Bunk,BANASHANKARI 2ND STAGE,BESIDE BESCOM","12.9218787141","77.5608355924"
"595","Kadirenahalli Park,BANASHANKRI 2ND STAGE KAVERI NAGARA,BESIDE HANUMAN MANDIR","12.9176689871","77.5645234622"
"596","Jayanagara 5th Block,JAYANAGARA 5TH BLOCK,BESIDE KRISHNA SEVA ASHRAMA HOSPITAL","12.9170916416","77.584924344"
"597","Marenahalli Petrol Bunk,PATTABHIRAMA NAGARA,BESIDE AKKA MAHADEVI PARK","12.9170410149","77.5886585657"
"598","Ragigudda,JAYANAGARA 9TH BLOCK,OPPOSITE OF CENTRAL MALL","12.91690622009","77.5921299824997"
"599","Jayanagara 9th Block East","12.91682","77.59707"
"600","MICO Layout,BTM LAYOUT 1ST STAGE","12.9166977746839","77.603466782884"
"601","Udupi Garden 16th Main,BTM LAYOUT,BESIDE BANGLOR ONE CENTER","12.9166423284103","77.6090389222481"
"602","BTM Layout Bus Stop,BTM LAYOUT 2ND STAGE,IN FROUNT OF KUVEMPUNAGRA BUS STAND","12.9163629189","77.615990527"
"603","HSR Apartment,KORAMANAGALA, HSR LAYOUT,IN FRONT OF ARANYA MULTI CUISINE RESTAURANT","12.9168055262077","77.6293271241013"
"604","14th Main HSR Layout,HSR LAYOUT,IN FRONT OF WESTMEAD CLINIC","12.91627","77.63530"
"605","Depot-25,HSR LAYOUT,OPPOSITE OF SAROVARA APARTMENT, DEPOT 25","12.9199793497093","77.6430081089863"
"606","Agara Junction","12.92444","77.65051"
"607","Ibbaluru Sarjapura Road","12.921205","77.662857"
"608","Sarjapura Cross,HSR LAYOUT,IN FRONT OF SHOBHA GRANET APARTMENT","12.9211990753899","77.6658049722196"
"609","Petrol Bunk,BELLANDUR,IN FRONT OF INDIAN OIL CORPORATION","12.9231192174197","77.6700011787813"
"610","Bellandur gate,BELLANDUR,IN FRONT OF OM SAI COMPLEX","12.92597","77.67622"
"611","Eco Space,BELLANDUR,IN FRONT OF MARUTHI SUZUKI MOTORS","12.9279756934602","77.6803299709971"
"612","Devarabisanahalli,DEVERA BISANAHALLI,OPPOSTIE OF COUNTRY CLUB","12.9320698099116","77.6870813885226"
"613","Kada Bisanahalli,KADABEESANAHALLI,IN FRONT OF V.R.CHAMBERS","12.9396210491615","77.6952027478891"
"614","CMRIT,KUNDALAHALLI,IN FRONT OF CMR INSTITUTE OF TECHNOLOGY","12.9675823607138","77.7138975882875"
"615","Kundala Halli colony,KUNDALAHALLI,BESIDE KUNDALAHALLI COLONY ARCH","12.970133612587","77.7124273614587"
"616","I Gate ITPL Road,WHITEFIELD,OPPOSITE OF GINGER","12.9773143702048","77.7190764101101"
"617","KTPO,WHITEFIELD,OPPOSITE OF GE HEALTH CARE GATE","12.9770874364018","77.7219026283155"
"618","SJR Park ITPL,WHITEFIELD,IN FRONT OF SJR GROUP","12.9809505958","77.7273751236"
"619","ITPL Back Gate,WHITEFIELD,IN FRONT OF ORACLE INDIA","12.9867143351905","77.7316321073966"
"620","Big Bazaar,OPPOSITE OF BIG BAZAAR","12.9881909554817","77.732137631871"
"621","ITPL,OPPOSITE OF G.R TECH PARK","12.9868363615681","77.7433688991284"
"622","Shanthinagar TTMC","12.95407042","77.59298565"
"623","Royan Circle","12.96037514","77.5677467"
"624","Water Tank Rayan circle","12.96024","77.56339"
"625","MCTC Bus Stand,BAPUJINAGAR","12.954014306740685","77.54377264497066"
"626","BHEL Gate","12.95056332","77.53801073"
"627","Quality Biscuits","12.94654269","77.53085351"
"628","Nayandahalli Quaters","12.94040944","77.52438868"
"629","Bangalore Univercity Gate Mysore Road","12.93527067","77.5122855"
"630","Dubasi palya cross,Opp to Car godown","12.922778445492817","77.49617267417909"
"631","Mylasandra Cross","12.91712133","77.49038271"
"632","Hoysala Circle Kengeri Satellite Town,KENGERI UPANAGARA","12.92527977","77.48537316"
"633","Shirke KHB Quarters","12.93252205","77.48783548"
"634","Jambu Savari Dinne","12.8657823266983","77.5810030849429"
"635","Surabhi,J.P.NAGARA 8TH PHASE, SURABHI NAGARA,IN FRONT OF VINAYAKA TIMBERS","12.8677367921578","77.581841243159"
"636","B K Circle,J.P.NAGARA 8TH PHASE,IN FRONT OF UNIVERSAL GRANITES","12.8706907581036","77.5831441671187"
"637","Kothnuru Kanakapura Road,J.P.NAGARA 8TH PHASE,IN FRONT OF GANESHA TEMPLE","12.8776220047945","77.5839204067855"
"638","Navodaya Nagara,NAVODAYA NAGARA,OPPOSITE OF VISHWAS SHOPPING CENTRE","12.8812725457672","77.5837247934118"
"639","Gourav Nagara,GOWRAVA NAGARA,IN FRONT OF KANISHKA DIAGNOSTIC","12.8846360586263","77.5825735923065"
"640","RBI Layout,R.B.I.LAYOUT,IN FRONT OF SOMESHWARA SABHA BHAVANA","12.888036571385","77.5818479011293"
"641","Brigade Millanium,R.B.I.LAYOUT,IN FRONT OF APOLLO PHARMACY","12.8920887894301","77.5818188520977"
"642","Puttenahalli,PUTTENAHALLI,IN FRONT OF NANJUNDESHWARA TEMPLE","12.8981187008","77.5824441388"
"643","State Bank Of India,BESIDE HONDA SERVISING COMPANY","12.9740247575395","77.6013112869818"
"644","MG Road Anil Kumble Circle","12.9774201382","77.6017935108"
"645","Cunningham Road","12.98765941","77.59442467"
"646","Coles Road,FRAZER TOWN,IN FRONT OF MY SMART SHOP","12.9964495955995","77.6124584645788"
"647","Mosque Road,FRAZER TOWN,IN FRONT OF EMPIRE HOTEL","12.9994882980326","77.6158645796122"
"648","Clarence School,FRAZER TOWN,IN FRONT OF MIZPAH TELUGU CHURCH","13.0022961857691","77.6166063149563"
"649","ITC,COOKES ROAD,OPPOSITE OF MANJIT DHABA","12.99823","77.62249"
"650","Jai Bharath Nagara,MARUTHI SEVA NAGARA,IN FRONT OF LAKSHMI VENKATERSHWARA IYENGAR BAKERY","13.0017114730752","77.6309928117633"
"651","Maruthi Seva Nagara,MARUTHI SEVA NAGARA,IN FRONT OF MY HOME MEDICALS","13.0026857659428","77.6346388049169"
"652","Indian Oil Sevanagar,MARUTHI SEVA NAGARA,OPPOSITE OF S.R.S.WINES","13.0047990361687","77.636829486175"
"653","Ramaswamy Palya,MARUTHI SEVA NAGARA,IN FRONT OF RAPHA MEDICALS","13.0097514766997","77.6353022311676"
"654","Kammana Halli Circle,KAMMANAHALLI,IN FRONT OF PHOTO ZONE","13.014654461778","77.6357427760545"
"655","Kammana Halli,KAMAANAHALLI,IN FRONT OF PARIVAR LIFE STYLE","13.0177954905494","77.6363722612938"
"656","Jalavayu Vihara,KALYANA NAGARA,IN FRONT OF JAL VAYU VIHAR","13.0210922822832","77.6368440768123"
"657","CGHS Nagavar Palya,C.V.RAMAN NAGARA,OPPOSITE OF PLAY GROUND","12.9871767889665","77.6623509300631"
"658","DRDO Qts,C.V.RAMAN NAGARA,IN FRONT OF MES SERVICE CENTER NO-1","12.9845349491","77.6613312587"
"659","LRDE,C.V.RAMAN NAGARA,IN FRONT OF ELECTRONIC & RADAR DEVELOPMENT ESTABLISMENT","12.980700585756","77.6567336425576"
"660","GTRE,HAL 3RD STAGE,BESIDE BEML LIMITED BANGALORE COMPLEX","12.97587","77.65566"
"661","BEML Gate,BEML,OPPOSITE OF BEML LIMITED","12.9711572944759","77.6591127306904"
"662","Jn of Suranjandas Road,HAL 3RD STAGE,IN FRONT OF STATE BANK OF INDIA","12.9667181027513","77.6612821013006"
"663","Jeevan Bheema Nagar","12.96721","77.65797"
"664","Jeevanbhimanagara Petrol Bunk,HAL 3RD STAGE,BESIDE OF INDIAN OIL PETROL BANK","12.9675702561422","77.654695251161"
"665","Kodihalli,HAL 3RD STAGE WARD-58,OPPOSITE OF ICICI BANK","12.9684739764049","77.6499416809637"
"666","Tippasandra,HAL 2ND STAGE,OPPOSITE OF COLUMBIA ASIA","12.9736559749019","77.6468255499328"
"667","Chinmaya Mission Hospital,INDIRANAGARA,BESIDE CHINMAYA HOSPITAL","12.9784490374584","77.646058922756"
"668","Lakshmipura Ulsoor,INDIRA NAGARA,BESIDE PROFESSIONAL COURIER","12.9779865979036","77.6331532510241"
"669","Jayamahal Extension","13.00210822","77.59419211"
"670","JC Nagara,JC NAGARA,BESIDE DARGHA","13.0040121846538","77.5935376758873"
"671","JC Nagara","13.00682742","77.5925431"
"672","Matada Halli,RT NAGARA POST OFFICE,OPPOSITE OF SHRI RADHAKRISHNA THEATER","13.0135346577","77.5935639068"
"673","Rahmath Nagara,RT NAGARA,IN FRONT OF NANDINI HOTEL","13.0170945358","77.5916445348"
"674","R T Nagar post Office,RT NAGARA,OPPOSITE OF NEW SHANTHI SAGAR HOTEL","13.022764558","77.5925387163"
"675","Vasanthappa Block,GANGANAGARA,OPPOSITE OF RADHAKRISHNA ENGLISH SCHOOL","13.0262131244","77.5890960172"
"676","CBI Ganganagara,GANGANAGARA,OPPOSITE OF RITI JEWELLERY","13.0267552607037","77.5863816667697"
"677","Veternary College","13.03027","77.58676"
"678","Canara Bank Hebbal","13.03613","77.58901"
"679","Hebbala","13.038476","77.58910425"
"680","Military Dairy Farm,BESIDE MILITARY COMPOUND","13.0494801649659","77.5926207091783"
"681","Kodigehalli,KODIGEHALLI,BESIDE PETTY SHOP","13.0575488694","77.5919377338"
"682","Sanjeevini Nagar Kodigehalli,SANJEEVINI NAGARA,BESIDE MOKSHA BAKERY & SWEETS","13.0576689678053","77.5890666578136"
"683","Kodigehalli Yelahanka road,KODIGEHALLI,BESIDE SHANTHALA DIGITAL STUDIO","13.0599486672898","77.5765544978177"
"684","Thindlu,THINDLU,BESDIE N.N.TIMES & MARBLES","13.0732687408895","77.5666912739568"
"685","Nanjappa Circle,VIDYARANYAPURA,BESIDE J.K.MART","13.0683797708567","77.5600159689403"
"686","Vidyaranyapura,VIDYARANYAPURA,BESIDE B.M.T.C. BUS STAND","13.0837510855325","77.5603167485139"
"687","Thambuchetty Palya,T.C.PALYA,OPPOSITE OF ANTHONY COMPOSITE P.U COLLEGE","13.0214405093762","77.7001189507868"
"688","Anandapura,ANANDAPURA,IN FRONT OF NATIONAL BAKERY & SWEETS","13.024101551708","77.6929488993631"
"689","Bhakthi Yoga Ashrama","13.021965","77.687973"
"690","Akshya Nagara,AKSHAYA NAGARA,IN FRONT OF IDEAL MART SUPER MARKET","13.0206251376668","77.6835177961978"
"691","Koudenahalli Cross,RAMAMURTHI NAGARA,IN FRONT OF BHAGYALAKSHMI GLASS & PLY WOODS","13.0211715501162","77.6790663878028"
"692","Muneshwara Layout,RAMAMURTHI NAGARA,IN FRONT OF J.M.J.CYBER CENTER","13.0181535316902","77.6718515332859"
"693","B Channasandra Bridge,RAMAMURTHI NAGARA,BESIDE RAILWAY BRIDGE","13.0130227748","77.6627497282"
"694","Kasthurinagara,KASTURI NAGARA,IN FRONT OF SPENCERS","13.002616223802","77.6612176903216"
"695","Bennigana Halli,KASTURI NAGARA,IN FRONT OF AUXILIARY PANEL CHANNASANDRA BYPASS","12.997112833","77.6628648117"
"696","NGEF Ground,SADANANDA NAGARA,OPPOSITE OF N.G.E.F.FACTORY","12.9918151996919","77.6516279315181"
"697","Isolation Hospital","12.9848842322052","77.6432201767812"
"698","Binnamangala,INDIRANAGARA,OPPOSITE OF LEO MOTORS, MARUTI SUZUKI","12.9836366497821","77.6406822874548"
"699","Indiranagar Police Station,INDIRA NAGARA,BESIDE WILLS LIFE STYLE & SYNDICATE BANK","12.976970952","77.6410683431"
"700","Indiranagar 6th main,INDIRA NAGARA,BESIDE E.ZONE","12.974063938733","77.6411662884823"
"701","New Horizon School,INDIRA NAGARA,BESIDE METHODIST CHURCH","12.9683920741","77.6414830796"
"702","Doopanahalli,DOMLURU,BESIDE 17TH MAIN BAJAJ MOTORS","12.9632524587","77.6417480316"
"703","New Bridge,DOMLURU,BESIDE EMBESSY GROUP","12.951181177","77.6397056971"
"704","Mangammana Palya,MANGAMMANA PALYA,IN FRONT OF MUNIYAPPA COMPLEX","12.9072973254583","77.6353487087456"
"705","Girinagara Extention,BESIDE KAVYA DIGITAL STUDIO","12.9411185949155","77.5397700151701"
"706","Girinagara Circle,GIRINAGARA,OPPOSITE OF N.D.R.R.COMPLEX","12.9409443751348","77.5451242750946"
"707","Girinagar Cross,AVALAHALLI BDA,BESIDE LG SHOW ROOM","12.9430679139","77.544502113"
"708","Muneshwara Block,MUNESHWARA BLOCK,BESIDE PRABHU BHAVAN SWEETS","12.9422528337661","77.5484562572523"
"709","Nagendra Block,BANASHANKARI 3RD STAGE NAGENDRA BLOCK","12.94189","77.55326"
"710","Apex Bank,BANASHANKARI 1ST STAGE HANUMANTHA NAGARA,BESIDE PLANTS SHOW  ROOM","12.94178","77.55587"
"711","Maruthi Circle,HANUMANTHA NAGARA,OPPOSITE OF GANESHA TEMPLE, CHAMARAJA PETE","12.9434716661907","77.558486554229"
"712","Sri Krishna Traders","12.94353492579797","77.56210137176515"
"713","Hanumantha Nagara Ward Office,HANUMANTHA NAGARA,OPPOSITE OF AXIS BANK & HDFC BANK ATM","12.9440335457543","77.5641924088821"
"714","Syndicate Bank,HANUMANTHA NAGARA,IN FRONT OF AMRIN BEDDING HOUSE","12.9465143150343","77.5641814325709"
"715","Kempegowda Bus Station,MAJESTIC,BESIDE AMAR HOTEL","12.978678","77.573219"
"716","Ananda Rao Circle,NEHARU NAGARA,BESIDE DIRECTOR OF MEDICAL EDUCATION","12.9819613804029","77.5744748693554"
"717","Central,SHESHADRI PURAM,OPPOSITE OF NATARAJA TALKIES","12.9897286270066","77.5724232561698"
"718","Dattatreya Temple,MALLESHWARAM,BESIDE DATTATREYA DEVASTANA","12.9989690892","77.574477056"
"719","Vyali Kaval Police Station,VYALIKAVAL,BESIDE JANMASHREE MEDI CENTER","13.0021123485377","77.5784220797354"
"720","Bashyam Circel,VYALIKAVAL,BESIDE CLUMAX DIAGNOSTICS","13.0059001688","77.5785162114"
"721","Sadhashivanagar,SADASHIVA NAGARA,BESIDE POONAM CHAMBERS","13.0086869001","77.5801640097"
"722","Bangalore Dairy Circle,OPPOSITE OF BANGALORE DAIRY","12.9374184273","77.6014764234"
"723","Adugodi,ADUGODI,IN FRONT OF GOVT. GIRLS SCHOOL","12.9440327547","77.6067866944"
"724","Tollgate","12.95304921","77.60515869"
"725","Elgin Floor Mill,LANGFORD TOWN SHANTHI NAGARA,BESIDE CROPS OF MILITARY SCHOOL","12.9550193039843","77.6053274147353"
"726","Shoolay Circle","12.9666292214179","77.6065673183591"
"727","Halasur Police Station,HALASURU,OPPOSITE OF POLICE STATION","12.97509191865626","77.62537209848096"
"728","Indira Nagar Double Road,INDIRA NAGARA,OPPOSITE OF HALLMARK & CARPETS & GIFTS","12.97834","77.63690"
"729","Kodihalli,HAL 2ND STAGE WARD-58,BESIDE ICICI BANK","12.9685564768109","77.6500255318156"
"730","Jeevanbhimanagara Petrol Bunk,HAL 3RD STAGE,BESIDE POLICE STATION COMPOUND , 11TH CROSS","12.9677289553338","77.6547928939502"
"731","Jeevan Bhimanagara Bus stand,HAL 3RD STAGE,OPPOSITE OF LIC OF INDIA","12.9656985353488","77.657875838262"
"732","HAL 12th Main,INDIRA NAGARA, 2ND STAGE,BESIDE VIVEKS","12.9693233036","77.6414382365"
"733","Doopanahalli ,INDIRA NAGARA,BESIDE PLUS","12.9633198819736","77.6412275849643"
"734","Domlur Bridge,DOMLURU, HAL,BESIDE SRI KALKI DYANA VIHAR","12.9633651953","77.6383191627"
"735","Domlur,DOMLURU, HAL,BESIDE T.T.M.C.","12.9614736364451","77.638456429072"
"736","Jn of 8th Main and 3rd Cross,JP NAGARA 2ND PHASE,BESIDE D.T.D.C.","12.90754457","77.5950106233"
"737","Milk Booth,JP NAGARA 2ND PHASE,BESIDE NANDINI PARLOUR","12.9098547902","77.5950978789"
"738","Water Tank Raggigudda,JP NAGARA 3RD PHASE,OPPOSITE OF B.W.S.S.B.","12.91379","77.59505"
"739","East End,JAYANAGARA 9TH BLOCK,ROYAL TOUCH INTERIOR DECORATOR","12.9174234811","77.5968082063"
"740","Jayanagara Pump House,JAYANAGARA 9TH BLOCK,BESIDE SAINT MARY ENTERPRISES","12.9217955556828","77.5969113038296"
"741","Carmel Convent Jayanagara,JAYANAGARA 4TH T BLOCK,BESIDE THINK SPAN TECHNOLOGIES","12.9266364529931","77.5970395034122"
"742","Jayanagara General Hospital,JAYANAGARA 4TH T BLOCK,RAJEEV GANDHI UNIVERSITY OF HEALTH","12.9269371964182","77.5924136515609"
"743","System Jalahalli Cross,PEENYA INDUSTRIAL AREA,IN FRONT OF NEW TIMBER INDUSTRY","13.0349750492869","77.5180530152307"
"744","TVS Cross","13.0280925813766","77.518921308363"
"745","Rolling Mill,PEENYA INDUSTRIAL AREA,IN FRONT OF HITZE EQUIPMENTS PVT LTD","13.0265658974519","77.5149225018528"
"746","NTTF,N.T.T.F.CROSS,OPPOSITE OF INDIAN BANK","13.0242868792","77.5108279847"
"747","Brundavana Peenya 2nd Stage,PEENYA INDUSTRIAL AREA 2ND STAGE,OPPOSITE OF INDIAN BANK","13.0204510689","77.5082448497"
"748","Peenya 2nd stage 14th Cross,PEENYA INDUSTRIAL AREA 2ND STAGE,OPPOSITE OF PEENYA GYMKHANA","13.0163185392","77.5059616193"
"749","Rajagopalanagar Rajni Farms,PEENYA INDUSTRIAL AREA 2ND STAGE,BESIDE CANARA BANK ATM","13.0138224465065","77.5089186834865"
"750","Peenya 2nd stage,PEENYA 2ND STAGE,IN FRONT OF JYOTHI ELECTRICALS","13.0104014184","77.5066151563"
"751","Dairy Hegganahalli,HEGGANA HALLI,IN FRONT OF SMART AGE INFOTECH","13.0077983346","77.5056334678"
"752","Hegganahalli,HEGGANA HALLI,OPPOSITE OF GOVT HIGH SCHOOL","13.003594894","77.5046371948"
"753","Hegganahalli Cross,HEGGANA HALLI,IN FRONT OF PRAKASH HARDWARE & ELECTRICALS","12.9999309921169","77.5043194718103"
"754","Neelagiri Thopu,SUNKADA KATTE,OPPOSITE OF S.S.K.CHOULTRY","12.9959163829483","77.502548458266"
"755","Vigneshwara Nagara,SUNKADA KATTE,OPPOSITE OF SALLAPURADAMMA TEMPLE","12.994542","77.504387"
"756","Aralimara Sunkadakatte,SUNKADA KATTE,IN FRONT OF RAJ JEWELLERS & BANKERS","12.9919419531","77.5046968739"
"757","Sunkadakatte","12.99017682","77.50427273"
"758","Herohalli Cross","12.98747364","77.49338256"
"759","Anjananagar Gollarahatti","12.9861001","77.48849859"
"760","East West College Cross","12.981161","77.485082"
"761","Basaveshwara Nagara","12.976908","77.480418"
"762","Bilikallu","12.975126","77.479877"
"763","Gudlipalya","12.970852","77.479403"
"764","8th Mile T Dasarahalli,8TH MILE,BESIDE A.K.SCOOTER WORKS","13.0455367265411","77.5055545144687"
"765","Rukmini nagara,RUKMINI NAGARA,BESIDE OPEN AREA","13.0408676171254","77.504874711254"
"766","Nagasandra Cross,NAGASANDRA CROSS,BESIDE SRIDEVI ENTERPRISES","13.0386169338844","77.5045504332105"
"767","Om timber,H.M.T.LAYOUT CROSS,BESIDE S.S.M. PUBLIC SCHOOL","13.0336009734817","77.5041360893561"
"768","Nelagedaranahalli,NELAGADARAHALLI,BESIDE MANJU DELUXE BAR & RESTAURANT","13.0314991383208","77.5035461729168"
"769","Gruhalaxmi layout,GRUHALAKSHMI LAYOUT,BESIDE B.B.M.P. OFFICE","13.0289903004","77.4979199376"
"770","Karihobanahalli Cross,KARIHOBANAHALLI,BESIDE RESIDENTIAL AREA","13.0248451978","77.4863950722"
"771","Thigalara Palya,THIGALARAPALYA,BESIDE RESIDENTIAL AREA","13.0166850499367","77.4832306018827"
"772","Syndicate bank Colony Andrahalli,SYNDICATE BANK LAYOUT,BESIDE OPEN AREA","12.9980656490016","77.4894107811297"
"773","Layout Herohalli,VENKATESHWARA LAYOUT,BESIDE PAVITHRA STORES","12.9932820518","77.4886105768"
"774","Thunga Nagara,TUNGA NAGARA,BESIDE SNEHA TELECOMMUNICATIONS","12.9918187593006","77.4851993783945"
"775","Byadarahalli","12.9850319473465","77.4820096016527"
"776","HMT Layout Cross,BESIDE OM TIMBERS","13.0335940814744","77.5040227981341"
"777","Andrahalli,ANDARAHALLI,BESIDE GANDHI ENTERPRISES","13.0079033633759","77.4849448304382"
"778","Chikkallasandra Bus Stand,IN FRONT OF U.K.RESIDENCY APARTMENTS","12.9150644848611","77.5522298148434"
"779","Mahesh Medicals,CHIKKALASANDRA,IN FRONT OF VINAYAKA PHOTO STUDIO","12.9140567595011","77.5499971032029"
"780","Uttarahalli,UTHARAHALLI,IN FRONT OF MARAMMADEVI TEMPLE","12.9058525991","77.5418342371"
"781","Arehalli,AREHALLI,IN FRONT OF VENKATESHWARA IYENGAR BAKERY","12.9083351332347","77.5381509542543"
"782","Poornapragna Layout WATER TANK,POORNA PRAJNA NAGARA (UTHARAHALLI),OPPOSITE OF CHAITHRA SANITARY WARE","12.9085253393419","77.5348750615729"
"783","Patalamma Temple Uthrahalli,BHARATHI HOUSING SOCIETY LAYOUT 4TH PHASE,IN FRONT OF PATALAMMA TEMPLE","12.9048136622","77.5298104808"
"784","Channasandra ,CHANASANDRA,BESIDE MARGIN FREE MARKET","12.902829754947","77.5214815091576"
"785","Indo american hybrid form,CHANASANDRA COLONY,IN FRONT OF ASHWINI DIAGNOSTIC CENTRE","12.9032041126367","77.5166938895578"
"786","Adugodi,ABHIMAN STUDIO,IN FRONT OF ABHIMAN STUDIO","12.9056803115309","77.5019929455286"
"787","BGS Hospital,NEAR ABHIMAN STUDIO,BESIDE B.G.S.ARCH","12.9069133989449","77.4993742991198"
"788","Ashrama Savandarbar,SUNKALPALYA,OPPOSITE OF SAVAN DARBAR ASHRAMA","12.909583468","77.4927192181"
"789","Jn of Gollahalli Road,KODIPALYA,BESIDE OPEN AREA","12.907564991502271","77.48881279090574"
"790","BWSSB Quarters","12.9397491","77.52345121"
"791","Chikkallasandra Aralimara,CHIKKALASANDRA,IN FRONT OF KOMARLA FEEDS","12.9121276672379","77.5523143794359"
"792","Okalipuram","12.9820035","77.56719739"
"793","Sujatha Talkies,RAMACHANDRAPURAM,OPPOSITE OF SUJATHA THEATRE","12.9823967256","77.5619286764"
"794","Gopalapura,RAJAJINAGARA,IN FRONT OF RINJU BAKERY","12.9804615532532","77.5577248352501"
"795","Rajajinagara 6th Block,RAJAJINAGARA,BESIDE RAJU SCOOTER GARAGE","12.97933","77.55366"
"796","Magadi Road TollGate","12.97367785","77.54997793"
"797","College Stop Gollarahatti","12.98588682","77.47827834"
"798","Gollarahatti","12.9884301","77.47284183"
"799","Kachohalli Cross","12.9904416","77.46899681"
"800","Chikkagollarahatti","12.99147704","77.46517338"
"801","Forest Gate","12.99166919","77.4591491"
"802","Machohalli Gate","12.99075432","77.4542291"
"803","Kadabagere gate","12.98893695","77.44883895"
"804","Mutturayaswamy Temple Magadi Road","12.99189169","77.44254141"
"805","Janapriya Town Ship","12.99886036","77.44269972"
"806","Srinivasapura","12.9899866161978","77.6549179491323"
"807","CGHS,C.V.RAMAN NAGARA,OPPOSITE OF THE AERONAUTICAL SOCIETY OF INDIA","12.9863732397957","77.6481509866533"
"808","CV Raman Nagara,C.V.RAMAN NAGARA,IN FRONT OF HAL ENGINE DIVISION","12.9836770434171","77.6494214294464"
"809","Banashankari 3rd Stage 2nd Phase,BESIDE HOSAKEREHALLI VIDYA NAGARA NEW BUS STAND","12.9341514967","77.5398678426"
"810","Seetha Cricle","12.93733","77.54907"
"811","Bank Colony,BANASHANKARI 1ST STAGE, SRINIVASANAGARA,IN FRONT OF SULABH SHOWCHALAYA","12.9386027980497","77.5535439434632"
"812","Srinivasa Nagara,BANASHANKARI 1ST STAGE, SRINIVASANAGARA,OPPOSITE OF BANK OF BARODA","12.9382627772778","77.5565258272691"
"813","Kohinoor Ground,GAVIPURAM EXTENTION,IN FRONT OF D.NAGANNA PLAY GROUND","12.9472945724","77.5663816463"
"814","North Road,BASAVANAGUDI,BESIDE ADHI BASAVA TEMPLE","12.9482727405","77.5706345402"
"815","Commercial Street,BESIDE ASC CENTRE","12.9800684843","77.6096771937"
"816","Naga Talkies,BESIDE DRAIN","12.9843198694","77.6116846595"
"817","Hockey Ground,FRAZER TOWN,IN FRONT OF KENDRIYA VIDYALAYA","12.9895304716959","77.6153896447591"
"818","Thomas Cafe,FRAZER TOWN,IN FRONT OF VINOD AUTO SERVICE","12.9910576846016","77.6140021786718"
"819","Sindhi Colony,COX TOWN,OPPOSITE OF BBMP CHOULTRY","12.99579","77.61678"
"820","Cocks Town,COX TOWN,IN FRONT OF GOVT PRIMARY SCHOOL","12.99740","77.62096"
"821","Coxtown Water Tank,COX TOWN,IN FRONT OF GANAPATHI TEMPLE","12.9945985765912","77.6269619416357"
"822","Jeevanahalli,OPPOSITE OF VETERINARY HOSPITAL","12.9948971559757","77.6288153011402"
"823","Jalahalli Cross Ayyappa Temple,JALAHALLI WEST,IN FRONT OF AYYAPPA TEMPLE","13.0463522393","77.5223884732"
"824","Shetty Halli Cross,INDIAN AIR FORCE JALAHALLI,NEAR & OPPOSITE OF STATE BANK OF INDIA ATM","13.0503592081","77.5256972294"
"825","Jalahalli West,INDIAN AIR FORCE JALAHALLI,IN FRONT OF AIR FORCE QUARTERS","13.0535048526","77.5306450669"
"826","KG Halli Bridge,KAMMAGONDANAHALLI,NEAR RAILWAY BRIDGE","13.0538481093283","77.5329896053787"
"827","HMT Watch Factory,H.M.T.,OPPOSITE OF H.M.T.WATCH FACTORY","13.0488781258","77.5357087422"
"828","HMT Shopping Complex","13.04973","77.53734"
"829","HMT Post Office,H.M.T.,OPPOSITE OF WATER TANK","13.0507095964794","77.5415766781096"
"830","HMT Auditorium,H.M.T.,NEAR H.M.T.AUDITORIUM","13.0493463840687","77.5447449818298"
"831","Jalahalli Police Station,BHARAT ELECTRONICS LIMITED,OPPOSITE OF JALAHALLI POLICE STAION","13.0489268687584","77.5498851824908"
"832","State Bank BEL Circle,BHARAT ELECTRONICS LIMITED,IN FRONT OF BHARAT ELECTRONICS LIMITED PARK","13.0493093748","77.5540997274"
"833","BEL Circle,BHARAT ELECTRONICS LIMITED,IN FRONT OF BHARAT ELECTRONICS LIMITED PARK","13.045959738092","77.5565432327536"
"834","BEL Hospital,JALAHALLI,OPPOSITE OF  BEL FACTORY GATE","13.0491576623","77.5574077293"
"835","Nagaland Circle,JALAHALLI,OPPOSITE OF BEL QUARTERS","13.0559651088","77.5578281656"
"836","Dodda Bommasandra Arch,DODDA BOMMASANDRA,BESIDE OPEN AREA","13.0586166319099","77.5591223837166"
"837","Vidhyaranyapura 1st Block,VIDYARANYAPURA,BESIDE SRI SAPTHAGIRI FOOD BAZAAR","13.0704167918683","77.5554490932497"
"838","Vidyaranyapura Post Office,VIDYARANYAPURA,BESIDE OPEN AREA","13.0763217341","77.5581010804"
"839","Echal Mara Vidyaranyapura,VIDYARANYAPURA,BESIDE KARNATAKA BANK","13.0797215432911","77.5591685934261"
"840","Abbigere Village,ABBIGERE,BESIDE PANCHAMUKHA GANAPATHI TEMPLE","13.07678123","77.5259556435"
"841","Abbigere","13.0725274869737","77.5236236031703"
"842","Abbigere Dinne,ABBIGERE,BESIDE SRI GANESH FAST FOOD","13.0711771392235","77.5277685623628"
"843","Abbigere Cross,ABBIGERE CROSS,BESIDE OPEN AREA","13.0707920907022","77.5295611922577"
"844","Kammagondanahalli Temple,KAMMAGONDANAHALLI,BESIDE POOJA JEWELLERS & BANKERS","13.0637407629436","77.5306547046034"
"845","SRS Mathikere,KAMMAGONDANAHALLI,BESIDE SRI VENKATESHWARA RICE TRADERS","13.0609400681796","77.5312537150357"
"846","KG Halli Post Office,KAMMAGONDANAHALLI,BESIDE LINO FOOT WEAR","13.0568340607","77.5327361841"
"847","KG Halli Bridge,K.G.HALLI,BESIDE SALEEM STORES","13.0550436409221","77.534696929542"
"848","Jalahalli West,INDIAN AIR FORCE JALAHALLI,OPPOSITE OF NO.1 SNCOS MESS","13.05296090688","77.5302724316238"
"849","TVS Cross Peenya 2nd Stage,PEENYA INDUSTRIAL AREA,OPPOSITE OF SRI DHARMASTALA UPAHAR HOTEL","13.0281588586524","77.5189786542219"
"850","Nelamangala","13.09781176","77.39435376"
"851","TB Stop Nelamangla Road","13.09727411","77.40134266"
"852","Weavers Colony Nelamangala","13.094276351329476","77.40543426721194"
"853","Nursery","13.09029465","77.40924096"
"854","Binnamangala","13.08747502","77.41254238"
"855","Arishinakunte","13.08029459","77.42402231"
"856","Devanna Palya","13.07793031","77.4307192"
"857","Dasanapura","13.07538406","77.43640073"
"858","Adakamaranahalli","13.07070795","77.44490398"
"859","Makali","13.06579601","77.4536598"
"860","Madanayakanahalli","13.06125751","77.46130707"
"861","TCI Tumkur Road","13.05909673","77.46596618"
"862","Madavara","13.05673306","77.47472303"
"863","Anchepalya Nelamangla Road","13.05525801","77.47985503"
"864","Jindal","13.05399823","77.48329817"
"865","Chikka Bidarakallu","13.05248402","77.48740819"
"866","Morision Factory","13.0507814","77.49217817"
"867","Widia School Tumkur Road","13.04910399","77.49684171"
"868","Deepak","13.04730298","77.5017016"
"869","Peenya 1st stage","13.03621356","77.52548776"
"870","S R S Jalahalli Cross","13.03473989","77.53006188"
"871","CMTI Goragunte Palya","13.0316378","77.53537182"
"872","Goragunte Palya","13.02882709","77.54031091"
"873","MEI Guragunte Palya","13.02654769","77.54441827"
"874","YPR RMC","13.0247064","77.54766623"
"875","Govardhan Talkies","13.01868","77.55338"
"876","Tata Institute Bus Stand","13.0142207264099","77.5665184377633"
"877","Munireddy Palya,JC NAGAR","13.00669164","77.59285894"
"878","Jayamahal,JAYAMAHAL,BESIDE SAI SAGAR HOTEL","13.0018609297","77.5944668055"
"879","Mahathma Gandhi Statue,BESIDE CHINNASWAMY STADIUM","12.9773957469","77.5990844797"
"880","MGRoad","12.9772992","77.60786411"
"881","Jalavayu Vihara,KALYANA NAGARA,OPPOSITE OF JAL VAYU VIHAR","13.0209519413386","77.6369680246129"
"882","Kammana Halli,KAMMANAHALLI,IN FRONT OF ST CHARLES HIGH SCHOOL","13.0176250264","77.6364562009"
"883","Kammana Halli Circle,KAMMANAHALLI,IN FRONT OF BATA SHOW ROOM","13.0148083161697","77.6358658279342"
"884","Kullappa Circle,KAMMANAHALLI,IN FRONT OF GURU NARASIMHA BAKERY","13.0139803713156","77.6394046255917"
"885","Maruthi School,SUBBAIAHAN PALYA KALYANA NAGARA,IN FRONT OF UTTAM SAGAR","13.0095707459973","77.6433097176117"
"886","Subbaianapalya,SUBBAIAHAN PALYA,BESIDE AYYAPPA TEMPLE","13.0075438708506","77.6409670658541"
"887","Indian Oil,SUBBAIAHAN PALYA,OPPOSITE OF BATA SHOW ROOM","13.0053949512704","77.6386475395901"
"888","Maruthi Seva Nagara,MARUTHI SEVA NAGARA,IN FRONT OF SWATHI SWEETS","13.0024997772458","77.6345760669977"
"889","Jai Bharath Nagara,MARUTHI SEVA NAGARA,BESIDE CANARA BANK","13.0015513815543","77.6307678770398"
"890","ITC,COOKES TOWN,OPPOSITE OF CANARA MANSION APARTMENTS","12.9985508323","77.6220733579"
"891","Coxtown Circle,COX TOWN,IN FRONT OF KRISTAL BANKERS","12.9964672242702","77.6215204689683"
"892","Jeevanahalli Railway Gate,JEEVANAHALLI,OPPOSITE OF JEEVANAHALLI RAILWAY BRIDGE","12.9941300757798","77.6291666942724"
"893","Kathalipalya","12.9924556806092","77.6376416822552"
"894","Isolation Hospital,OLD BAYAPPANAHALLI,OPPOSITE OF ISOLATION HOSPITAL","12.9850673575399","77.6425119070313"
"895","Hero Honda,DOMLURU,BESIDE HEROHONDA SHOW ROOM","12.9545885883","77.6414761227"
"896","Central Silk Board,BTM LAYOUT, MADIWALA,IN FRONT OF CENTRAL SILK BOARD","12.9165109154049","77.6210663884489"
"897","BTM Layout,BTM Layout 2nd Stage,Kuvempunagara Bus Stand","12.916211","77.615991"
"898","Udupi Garden 16th Main,BTM Layout,Opp Axis Bank","12.916535","77.608779"
"899","BTM water Tank,BTM LAYOUT,OPPOSITE OF CORPORATION BANK","12.9164504021527","77.6067753888095"
"900","MICO Layout,BTM LAYOUT,IN FRONT OF METRIC STREAM","12.9164701153754","77.6043445058414"
"901","Ragigudda,JAYANAGARA 9TH BLOCK,BESIDE VISION EXPRESS","12.9166900849591","77.5933496601074"
"902","Marenahalli Petrol Bunk,PATTABHIRAMA NAGARA,OPPOSITE OF AKKA MAHADEVI PARK","12.9168066166074","77.5887057706717"
"903","Jayanagara 5th Block,JAYANAGARA 5TH BLOCK,BESIDE LADY HOSPITAL","12.9168966960529","77.5849279305266"
"904","MICO Layout Checkpost,GOPALANMALL","12.91360551","77.59980713"
"905","JP Nagara 3rd Phase,JP NAGARA 3RD PHASE,BESIDE H.D.F.C.BANK","12.9070150474821","77.6002130061659"
"906","JP Nagara 6th Phase,JP Nagara,Beside Indus Ind Bank","12.906407","77.576072"
"907","Byatarayana Pura,BYATARAYANAPURA,BESIDE GOVERNMENT SCHOOL","13.0671682768","77.5934822671"
"908","SBM ATM","13.06654","77.59607"
"909","Amrutahalli,AMRUTHAHALLI,BESIDE S.L.J. IYENGAR BAKERY & SWEETS","13.0657345534545","77.6007132555711"
"910","Jakkur Layout","13.06950","77.60158"
"911","18th Cross Srirampura,AMRUTHAHALLI,BESIDE APARTMENTS","13.068805709219","77.6035392112272"
"912","Srirampura Cross,JAKKURU,BESIDE MAHATMA GANDHI INSTITUTE OF RURAL ENERGY & DEVELOPMENT","13.0666686737253","77.6096754790066"
"913","Srirampura,SRIRAMPURA,BESIDE MESTRIPALYA LAKE","13.0658241179193","77.6201388447411"
"914","Mestripalya,MESTRIPALYA,IN FRONT OF CHURCH","13.0613128468","77.6204130705"
"915","Rachenahalli Hegde Nagar,RACHENAHALLI,OPPOSITE OF DR.B.R.AMBEDKAR  YUVKAR SANGHA","13.0581614140036","77.6236002576182"
"916","Tanisandra,THANISANDRA,OPPOSITE OF IYENGAR BAKERY","13.0560138576342","77.6323665476868"
"917","Ashwathanagara Nagawara","13.0524894756681","77.631312981118"
"918","NAGAVARA JUNCTION","13.0405076374148","77.6245555082264"
"919","Hebbala Bridge,HEBBALA,BESIDE LAKE","13.043678815969","77.5905063063303"
"920","Amrutahalli,AMRUTHAHALLI,BESIDE AMRUTH CLINIC","13.0656375449018","77.6007677801963"
"921","Byatarayana Pura,BYATARAYANAPURA,BESIDE B.B.M.P PUBLIC SERVICE CENTER","13.0672668237534","77.5935926701177"
"922","Telecom Layout,TELECOM LAYOUT,OPEN AREA","13.0680022047907","77.6166164937984"
"923","Railway Gate","13.0711280362442","77.6185353452072"
"924","Shivarama karanth layout 17th Cross","13.069975","77.623031"
"925","Shivarama karanth layout 13th Cross","13.069324","77.624291"
"926","Shivarama karanth layout 10th Cross","13.069024","77.625482"
"927","SBI Bank","13.06827","77.62904"
"928","K NarayanaPura Cross","13.06756","77.63391"
"929","BDS Nagara,K.NARAYANAPURA,OPEN AREA","13.0658025644146","77.6430382812629"
"930","Kothnuru Bagalur Road","13.06156724","77.64892223"
"931","Byrathi Cross","13.0571188694482","77.648599301336"
"932","Byrathi,BYRATHI,BESIDE AMAL BAKERY","13.0563024753139","77.6518975480696"
"933","Kyalasanahalli,KYALASANAHALLI,BESIDE PRAKASH STORE","13.056329","77.658586"
"934","Bileshivale,BILESHIVALE,BESIDE CANARA BANK ATM","13.0545162998129","77.671037691837"
"935","Rampura Cross","13.052328","77.682011"
"936","Rampura,RAMPURA,IN FRONT OF GOVERNMENT PRIMARY SCHOOL","13.0516841271732","77.6910736735482"
"937","Adur,ADUR,OPPOSITE OF GOVT PRIMARY SCHOOL","13.0555486617376","77.7057161898944"
"938","Bidarahalli Cross","13.056858","77.715186"
"939","East Point College,AVALAHALLI,OPPOSITE OF EAST POINT COLLEGE","13.0501722760853","77.7199771723208"
"940","Hirandahalli,HIRANDAHALLI,IN FRONT OF SOCIETY","13.0458262767489","77.7227164427867"
"941","Srirama","13.0395561135882","77.7296612725675"
"942","Avalahalli,AVALAHALLI,IN FRONT OF MUNESHWARA TEMPLE","13.0361526082358","77.7353818019942"
"943","Hebbala,HEBBALA,BESIDE LAKE","13.0430135597","77.5900968164"
"944","Kodigehalli Gate","13.05772","77.59331"
"945","Sriramapura Cross,SRIRAMPURA,IN FRONT OF M.G.M.INSTITUTE OF RURAL INDUSTRIAL DEVELOPMENT","13.0666078105601","77.6096020911955"
"946","18th Cross Srirampura,AMRUTHAHALLI,BESIDE CENTURY APARTMENT","13.0690466984065","77.603364171904"
"947","Government School,JAKKURU,OPPOSITE OF WATER TANK","13.0773810420769","77.6060377924945"
"948","Jakkur,JAKKURU,OPPOSITE OF HANUMAN TEMPLE","13.079371665682","77.6075778640694"
"949","Chokkanahalli","13.0847131927","77.627669787"
"950","Agrahara Layout,AGRAHARA,OPPOSITE OF GOVERNMENT  SCHOOL","13.0985226280163","77.6273704948192"
"951","Bellahalli Cross","13.1020051427","77.634636825"
"952","Reva college","13.1174839246108","77.633930812172"
"953","Delhi Public School,BALAJI NAGARA,BESIDE PITTY SHOP","13.1235980779784","77.6394693354367"
"954","Shrinivasapura Cross,SRINIVASAPURA,BESIDE OPEN AREA","13.1261258736936","77.6451571826122"
"955","Sathanur Colony,SATHANURU,BESIDE TEMPLE","13.1279487324703","77.6465052322742"
"956","Sathanuru,SATHANURU,BESIDE TEMPLE","13.1319567841","77.6474654954"
"957","Bagaluru,BAGALURU,BESIDE GRAMA DEVATHE TEMPLE","13.1347347982","77.6680451632"
"958","Yelahanka Satelite Town 5th Phase","13.10596804","77.57251698"
"959","Yelahanka Bakery","13.10708131","77.57586258"
"960","Government School","13.10330364","77.57682714"
"961","Mother Dairy","13.09940","77.57693"
"962","Yelahanka Satellite Town","13.09586","77.57913"
"963","Chikka Bommasandra","13.09422","77.58269"
"964","Sharavathi Hotel","13.09759","77.58419"
"965","Sheshadripuram College","13.09971085","77.58864113"
"966","Yelahanaka NES Office","13.0977866","77.59178063"
"967","Yelahanka Police Station","13.09403406","77.5943898"
"968","Allalasandra Gate Yalahanka","13.08668705","77.59387244"
"969","Aerodrum Devanahalli Road","13.07687","77.59300"
"970","GKVK","13.07278","77.59274"
"971","Byatarayana Pura","13.06658","77.59335"
"972","Kodigehalli","13.05679568","77.59364486"
"973","Military Dairy Farm,BESIDE ESTEEM MALL","13.0497349723588","77.5929638024944"
"974","Hebbal","13.03897751","77.58964847"
"975","Veterinary College","13.03002086","77.58701231"
"976","Ganganagara","13.02601171","77.58554335"
"977","ISRO Layout,ISRO LAYOUT,NEAR BY BHARATHIYA STATE BANK","12.8988066874","77.5581368711"
"978","Kumaraswamy Layout,KUMARA SWAMY LAYOUT,BESIDE BMTC MAIN BUS STAND","12.9029328319262","77.5617779737325"
"979","Kumaraswamy Layout Police Station,KUMARA SWAMY LAYOUT,IN FRONT OF IIFL","12.9056221996423","77.5628694161083"
"980","Dayananda Sagar College,KUMARASWAMY AYOUT 2ND STAGE,IN FRONT OF RAMADEVA STATIONERIES","12.9095642430678","77.5652525401094"
"981","Shasthri Bekary,BANASHANKARI, 2ND STAGE,IN FRONT OF KAMMA MAHILA CREDIT CO-OPERATIVE SOCITY","12.9242411535","77.5734716468"
"982","M M Industries,BANASHANKARI, 2ND STAGE,IN FRONT OF KODAK EXPRESS STUDIO","12.9290138092","77.5735209323"
"983","Tata Silk Farm,BASAVANAGUDI,IN FRONT OF GARADI APARTMENT","12.9356233589","77.5737367664"
"984","Basavanagudi Police Station,BASAVANAGUDI,IN FRONT OF AMBIANCE PLATINUM APARTMENT","12.9413826822948","77.5736344556221"
"985","Sajjanrao Circle,V.V.PURAM,BESIDE HOPCOMS & BBMP HOSPITAL BLOCK","12.9530191608","77.577323718"
"986","Minarva Circle,V.V.PURAM,BESIDE CORPORATION COMPLEX","12.9547395305482","77.5791981123759"
"987","Sadashivanagara Police Station,SADASHIVA NAGARA,BESIDE OPEN AREA","13.0159061237548","77.5725968924735"
"988","MS Ramaiah Hospital New BEL Road,DEVASANDRA,BESIDE OPEN AREA","13.0270482916074","77.5716743794484"
"989","ITI Layout Dollars colony,AGS LAYOUT,BESIDE CLASSIC POLO","13.0338575039","77.5686183572"
"990","Devasandra,DEVASANDRA,BESIDE B.M.T.C.BUS STAND","13.0361255515986","77.5665862242995"
"991","Kuvempu Circle,JALAHALLI,BESIDE OPEN AREA","13.0431934353","77.561235074"
"992","Dodda Bommasandra,DODDA BOMMASANDRA,BESIDE S.B.BAKERY","13.0601804144301","77.5587748940544"
"993","Chamundeshwari layout,CHAMUNDESHWARI LAYOUT,BESIDE FARID FURNITURES","13.064751671571","77.5595117571555"
"994","Canara Bank Vidyaranyapura,VIDYARANYAPURA,BESIDE SHIVA BAR & RESTAURANT","13.0721287066263","77.5562483155197"
"995","BEML Gate,HAL 3RD STAGE,OPPOSITE OF BEML FINE ARTS CLUB","12.9716389719","77.6582970936"
"996","GTRE,HAL 3RD STAGE,OPPOSITE OF BEML LIMITED BANGALORE COMPLEX","12.9758122863691","77.6555131757699"
"997","GTRE","12.9836439765092","77.6491611509862"
"998","NGEF Ground,SADANANDA NAGARA,IN FRONT OF N.G.E.F.FACTORY","12.9919357505","77.6517878752"
"999","Sadananda Nagara,SADANANDA NAGARA,IN FRONT OF DOOR NO 188","12.9944098368","77.6580273639"
"1000","Kasthurinagara,KASTURI NAGARA,OPPOSITE OF KASTURI BAKERY","13.0027314850597","77.661035267609"
"1001","Jn Of Ring Road Channasandra,RAMAMURTHI NAGARA,BESIDE RAILWAY BRIDGE","13.0132232263595","77.6627848272557"
"1002","Ramamurthinagar Police Station,RAMAMURTHI NAGARA,IN FRONT OF POLICE STATION","13.0120903053287","77.6677964740646"
"1003","Alada Mara Ramamurthy Nagar,RAMAMURTHI NAGARA,OPPOSITE OF HI-FASHION FAMILY STOP","13.0115346653959","77.6769405044932"
"1004","Church RM Nagar,RAMAMURTHI NAGARA,IN FRONT OF VISMAYA ENTERPRISES","13.0117616652912","77.6787970856894"
"1005","ITI Circle,DOORAVANI NAGARA,IN FRONT OF VIJAYALAKSHMI ENTERPRISES","13.008053","77.683226"
"1006","ITI Gate,DOORAVANI NAGARA,BESIDE ITI QUARTERS","13.0055243628425","77.6846743054182"
"1007","National College Basavanagudi,SHANKARAPURAM,IN FRONT OF NATIONAL HIGH SCHOOL","12.9493939426632","77.573590544037"
"1008","Mahila Seva Samaja,SHANKARAPURAM,IN FRONT OF KARNATAKA JAINA BHAVANA","12.9536875337","77.5735108741"
"1009","Narayanapura Cross","13.0678198095694","77.6336955254445"
"1010","Tanisandra","13.0562459128959","77.633004081593"
"1011","Nagavara","13.0382056162","77.6235108543"
"1012","Glass Factory","13.0349031463","77.6229677908"
"1013","Govindapura Cross","13.0323106237","77.6219581068"
"1014","Railway Gate Kodugonahalli Police Station","13.0252460888592","77.6198005365459"
"1015","Periyar Nagara Circle","13.0087520242312","77.6136008809619"
"1016","Bamboo Bazaar,SHIVAJI NAGARA,BESIDE HKBK DEGREE COLLEGE","12.9917197691225","77.6022677704006"
"1017","Indian Express,BESIDE INDIAN EXPRESS BUILDING","12.9834422873282","77.5971296221915"
"1018","MG statue","12.97726591","77.59921884"
"1019","St .Josephs high schools","12.97010207","77.59441651"
"1020","Pallavi Theatre","12.96779334","77.59094079"
"1021","super talkies,COTTONPET,OPPOSITE OF SUPER TALKIES","12.9676974658","77.5702503975"
"1022","Royan Circle,CHAMARAJA PETE,CHURCH OPEN SPACE, OPPOSITE BHARATH PETROL BUNK","12.9611695558","77.5688594207"
"1023","Chamarajapete,CHAMARAJA PETE,IN FRONT OF MANAPURAM GOLD","12.9561053775","77.567516556"
"1024","Bangalore High School,SHANKARAPURAM,IN FRONT OF MARATHA HOSTEL","12.9533929937","77.5676280353"
"1025","Ramakrishna Ashrama,SHANKARAPURAM,IN FRONT OF SBI BANK","12.9493952449","77.5677755568"
"1026","Hanumantha Nagara Ward Office,HANUMANTHA NAGARA,BESIDE NAGINI CREDIT CO-OPERATIVE SOCIETY","12.9432467982958","77.5658657406716"
"1027","Subramanya temple,HANUMANTHA NAGARA,IN FRONT OF CAUVERY FURNITURE SHOWROOM","12.9416300320398","77.5620185875235"
"1028","Nirmala Stores,HANUMANTHA NAGARA,OPPOSITE OF SANGEETHA MEDICALS","12.941532","77.559671"
"1029","Muneshwara Block,MUNESHWARA BLOCK,BESIDE SOHAN ENTERPRISES","12.9423299711","77.5486286078"
"1030","Mahathma Gandhi Statue,IN FRONT OF GANDHI STATUE","12.9767147172","77.6000152063"
"1031","Cottonpet Hospital","12.962238129517214","77.56915562218626"
"1032","Ramakrishna Ashrama,BASAVANAGUDI,OPPOSITE INDUS BANK","12.9467992266916","77.5678327699212"
"1033","Avalahalli BDA Park,AVALAHALLI BDA,BESIDE BESCOM","12.9432863463","77.5430342741"
"1034","Hunase Mara Banashankari,BANASHANKARI 2ND STAGE,INFRONT OF BRIGADE SOFTWARE PARK","12.921023","77.573318"
"1035","Malleshwaram Circle,KC GENERAL HOSPITAL,OPPOSITE OF ICICI BANK","12.9966772255","77.5679794047"
"1036","navarang talkies,RAJAJINAGARA,IN FRONT OF SAGUR CLINIC","12.9973828189896","77.5486986129093"
"1037","Modi Hospital,BASAVESHWARANAGARA,BESIDE BHARATHIYA STATE BANK ATM","12.9973027162532","77.5455910745124"
"1038","Shankar Mutt,BASAVESHWARANAGARA,BESIDE HONEY-B BAKERY, INDIAN HEALTH CENTER","12.998839750063","77.5417202418846"
"1039","Kamalanagar Water Tank,BASAVESHWARANAGARA,OPPOSITE OF AXIS BANK","12.9958757216419","77.5400842530868"
"1040","Kamalanagar 8th Main,BASAVESHWARANAGARA,BESIDE NOKIA MAXTEL MOBILE SHOW ROOM","12.9920147918","77.5386458449"
"1041","Old Bus Stop,BASAVESHWARANAGARA,OPPOSITE OF BBMP WARD OFFICE","12.9919551127","77.534378618"
"1042","Kamalanagar BEML layout,BASAVESHWARANAGARA,IN FRONT OF CANARA BANK ATM","12.9927798919","77.5306286383"
"1043","Bidadi,BIDADI,BESIDE BIDADI B.M.T.C. MAIN BUS STAND","12.7973839827","77.3847758956"
"1044","Railway Station Bidadi,BIDADI,IN FRONT OF RAILWAY STATION","12.7997756334647","77.3908267311295"
"1045","Byramangala Cross,BIDADI,IN FRONT OF PARVATHI ENTERPRISES","12.8021537372","77.3979022506408"
"1046","MEDANAHALLI","12.7891754206571","77.3985443012102"
"1047","BAIRAVANA DODDY","12.7863411426696","77.3999205919035"
"1048","COCO COLA","12.7812492382","77.4039722979"
"1049","Innovative Film city","12.7796387393","77.4050292559"
"1050","Abbanakuppe","12.77390060322","77.40965911479"
"1051","DEPOT-36","12.7692484577991","77.4133322552264"
"1052","Byramangala Lake","12.77609","77.42027"
"1053","Kiabd 2nd Phase","12.79544","77.42340"
"1054","Eagleton Gate,IN FRONT OF EAGLETON RESORTS","12.8107021563","77.4160248041"
"1055","Kadumane Hotel","12.81500","77.40724"
"1056","Billakempana Halli,BILLA KEMPANAHALLI,OPPOSITE OF RAILWAY GATE","12.8120655113053","77.4040384236135"
"1057","Byramangala Cross,BIDADI,OPPOSITE OF TYAGARAJU CENTRAL SCHOOL","12.8035066277","77.3984627891"
"1058","Railway Station Bidadi,BIDADI,OPPOSITE OF RAILWAY STATION","12.7994730218253","77.3907259064491"
"1059","Bidadi,BIDADI,IN FRONT OF GOVERNMENT HOSPITAL","12.796598093641","77.3845269239009"
"1060","Byramangala Cross,BIDADI,IN FRONT OF TYAGARAJU CENTRAL SCHOOL","12.8036132455","77.398157604"
"1061","Billakempana Halli,BILLA KEMPANAHALLI,IN FRONT OF RAILWAY GATE","12.8122179415847","77.403921068496"
"1062","Kadumane Hotel,KADUMANE,IN FRONT OF SRI RENUKAMBA SCOOTER WORKS","12.81533","77.40741"
"1063","Eagleton Gate,OPPOSITE OF EAGLETON RESORTS","12.8105204859341","77.416443053417"
"1064","Depot-36","12.76870","77.41456"
"1065","Coco cola","12.7812764363398","77.4037549092797"
"1066","Bairavana doddy","12.78633156525","77.3997806076572"
"1067","Medanahalli","12.7892012335","77.3983486276"
"1068","Byramangala Cross,BIDADI,IN FRONT OF MANDARATHI ARAMANE HOTEL","12.802144527597","77.3970369760088"
"1069","Bagaluru","13.13447135","77.66782129"
"1070","Chocolate","13.12232626","77.66836049"
"1071","Hosur Bande","13.10607078","77.66086757"
"1072","Kannuru","13.09290093","77.65453705"
"1073","Ambedkar Bhavana","13.06466139","77.65192386"
"1074","Geddala Halli","13.04827874","77.64535962"
"1075","Hennur Bande","13.03679271","77.64096335"
"1076","Hennuru Ring Road,YALIYURU,IN FRONT OF CANARA BANK","13.02837","77.63323"
"1077","Jyothi School Lingarajapura,KACHAKARANAHALLI","13.01530843","77.62893732"
"1078","Lingarajapura","13.01227979","77.62584216"
"1079","Davis Road","13.00327714","77.61891665"
"1080","Clarence School","13.00274665","77.61656645"
"1081","Oxford Dental College,J.P.NAGARA 6TH PHASE,IN FRONT OF OXFORD DENTAL CLINIC","12.9025380593","77.5832257513"
"1082","SHANTHI NAGAR BUS STAND","12.95456807","77.59249914"
"1083","CIL,JC NAGARA,OPPOSITE OF DOORADARSHANA KENDRA MAIN GATE","13.0103913601","77.5910808519"
"1084","RT Nagara Police Station,RT NAGARA,OPPOSITE OF ANDRA BANK","13.0256700978369","77.5930192334379"
"1085","HMT Layout,RT NAGARA,OPPOSITE OF VIJAYA BANK","13.0249592364514","77.593594777516"
"1086","Dinnur,RT NAGARA,OPPOSITE OF SRI SHABARI DARSHAN HOTEL","13.0241678489644","77.5981132497219"
"1087","Pushpanjali Talkies RT Nagar,SULTHANPALYA, RT NAGARA,OPPOSITE OF LAL BAHADUR SHASTRI PARK","13.022307845578","77.6024152698737"
"1088","Sulthan Palya,RT NAGARA POST,OPPOSITE OF SHIVA SWEETS & BAKERY","13.0266385256149","77.6040001609487"
"1089","Manorayanapalya cross","13.0285303879173","77.6044859301562"
"1090","Kanakanagara(Goutam College)","13.0348830829057","77.6045899188902"
"1091","Vishwanatha Nagenahalli,RT NAGARA POST,OPPOSITE OF ST VANACHINNAPPA CHURCH","13.0395547315846","77.6050150681079"
"1092","Rose Garden Jayanagara","12.92761","77.57998"
"1093","Kadirenahalli Park,BANASHANKRI 2ND STAGE KAVERI NAGARA,BESIDE SRINIVASA STEEL & CEMENT TRADERS","12.9176577398307","77.5643327485455"
"1094","Jayanagara 8th Block","12.92403","77.58002"
"1095","Umara Bhagh Layout,Eliyas Nagar","12.90703","77.57084"
"1096","Halasuru","12.9796702298149","77.6295943169236"
"1097","BMTC Depot-6","12.9826290936245","77.635135756108"
"1098","NGEF","12.9879376258032","77.6500322780632"
"1099","Benniganahalli","12.994148","77.663118"
"1100","Tin Factory","12.99687","77.66919"
"1101","ITI Calony Gate","13.0055479715034","77.6855542782571"
"1102","KR Puram","13.0083665041283","77.6953354634551"
"1103","KR Puram New Layout","13.0118662393371","77.6986945684485"
"1104","Tambuchettipalya Gate Hoskote Road","13.0174613539783","77.7048759714832"
"1105","Bhattarahalli","13.0202438732249","77.7095559421172"
"1106","SJES College","13.0239053854788","77.7159198926809"
"1107","Medahalli","13.02632","77.72021"
"1108","Sheni Mahatma Temple","13.0326085594001","77.7310426956098"
"1109","Avalahalli","13.0360478827048","77.7358519222985"
"1110","Cheemasandra Gate","13.0401769820981","77.7416344267678"
"1111","Budigere Cross","13.047305320226","77.7516547257701"
"1112","Kattumnallur Gate","13.0537691256995","77.7618606324826"
"1113","Hosakote Kodi","13.056191074332","77.7668259504131"
"1114","Hosakote High School","13.0713698199921","77.7852649839248"
"1115","Channabyregowda Circle Hosakote","13.072137869869","77.7867491624064"
"1116","Hosakote Bus Stand","13.0787635246286","77.788108360884"
"1117","St Joseph Boys High school","12.970226422009","77.5943954634781"
"1118","Philips Millenium","12.9819101669543","77.6241020478742"
"1119","Police Housing Corporation","12.9693389567821","77.6160666387365"
"1120","Magadi Road 1st Cross","12.97565216","77.56277996"
"1121","Magadi Road 5th Cross","12.97566254","77.56049596"
"1122","Magadi Road 10th Cross","12.97558515","77.55696579"
"1123","Magadi Road TollGate,VIDYARANYA NAGARA,BESIDE SLNS BAR","12.9745812502025","77.5486207406268"
"1124","Sunkadakatte,SUNKADA KATTE,IN FRONT OF ASHWATHA KATTE","12.9892340954","77.5058480445"
"1125","Annapoorneshwari Nagara,ANNAPOORNESHWARI NAGARA,NEAR ANNAPOORNESHWARI BAKERY","12.9805590771","77.506865859"
"1126","Srinagara,Hanuman temple","12.94413354425143","77.55429077911378"
"1127","Makkalakoota,CHAMARAJA PETE,BESIDE THE BANGALORE CITY INSTITUTE","12.95718505779","77.5727574785268"
"1128","Binni Pete,BINNI PETE,OPPOSITE OF CAR GROUND","12.9644140229","77.5615108386"
"1129","Binni Mill,COTTONPET,IN FRONT OF AYYAPPA TEMPLE","12.970804302","77.5664395653"
"1130","Prasanna Talkies Magadi Road,RAJAJINAGARA,OPPOSITE OF SHRINGAR JEWELLARY","12.9760781117","77.5525075011"
"1131","Rajajinagara 6th Block,RAJAJINAGARA,BESIDE VITTAL KRISHNA BAKERY","12.9792790872393","77.5534746370936"
"1132","Bashyam Circle,RAJAJINAGARA,BESIDE PRABHU BOOK WORKS","12.984882744293887","77.55408166507413"
"1133","Rajajinagar ESI,RAJAJINAGARA,BESIDE SACHIN REPROGRAPHICS","12.9907001963087","77.5525134744742"
"1134","Basaveshwara College,RAJAJINAGARA,BESIDE SACHIN REPROGRAPHICS","12.9944013538408","77.5526553249175"
"1135","Canara Bank ,RAJAJINAGARA,BESIDE CANARA BANK","13.0003932387422","77.5504913175261"
"1136","Rajaji Nagar 1st Block,MAHALAKSHMIPURAM,BESIDE CITY CARS","13.004485","77.548936"
"1137","Mahalakshmi Layout Entarence,RAJAJINAGARA 1ST BLOCK,OPPOSITE OF AKASH AUTO CONSULTANT","13.0083720384226","77.5486949965855"
"1138","ISKCON TEMPLE,RAJAJINAGARA 1ST BLOCK,OPPOSITE OF ISKON TEMPLE","13.0117345601","77.5514051132"
"1139","Government Soap Factory","13.01339","77.55381"
"1140","Sangam Circle,JAYANAGARA 8TH BLOCK,BESIDE RAGHAVENDRA VEG.","12.9178318474","77.5778931845"
"1141","Kumaraswamy Layout 2nd Stage,KUMARASWAMY LAYOUT 2ND STAGE,IN FRONT OF KEMPEGOWDA GOVT.HIGHER PRIMARY SCHOOL","12.9058814328","77.5580187701"
"1142","Water tank kumaraswamy layout,KUMARASWAMY AYOUT 2ND STAGE,OPPOSITE OF S.S.CONDIMENTS & BANAKARAS DIGITAL STUDIOS","12.9085342318209","77.5616586352955"
"1143","Padmanabha Nagara Rock,PADMANABHA NAGARA,IN FRONT OF B.B.M.P.WARD OFFICE, PADMANABHA NAGARA","12.9185465723","77.5574022811"
"1144","Padmanabhanagara Circle","12.91696","77.55939"
"1145","Hosakerehalli Cross,BANASHANKARI 3RD STAGE,IN FRONT OF CHANDAN HARDWERE","12.9323689967086","77.5451669408954"
"1146","Water Tank,BANASHANKARI 3RD STAGE,IN FRONT OF BALAJI PHARMACY","12.9304514208294","77.5474492413312"
"1147","Banashankari 3rd Stage 3rd Phase,BANASHANKARI 3RD STAGE,OPPOSITE OF PAI INTERNATIONAL ELECTRONICS SHOP","12.9278834257","77.5511238165"
"1148","Chennamma kere Achukattu,BANASHANKARI 3RD STAGE,MAIN STAND","12.9283355456","77.5567042362"
"1149","Chennamma kere Achukattu park,BANASHANKARI 3RD STAGE,OPPOSITE OF KARNATAKA BAR","12.9261805583","77.5535514671"
"1150","Jaraganahalli House Building Co-Op-Society Layout,J.H.B.C.S.COLONY,IN FRONT OF PARK VIEW DEPARTMENTAL STORES","12.9111157637","77.5644614361"
"1151","JHBCS Cross,J.H.B.C.S.COLONY,IN FRONT OF JARAGANAHALLI HOUSING SOCIETY LTD","12.912998","77.564794"
"1152","AGS Layout,A.G.S. LAYOUT,NEAR B.M.T.C. BUS STAND","12.9123135846327","77.5371301038869"
"1153","AGS Layout Cross,A.G.S. LAYOUT,OPPOSITE OF ANNAPOORNESHWARI TENT HOUSE","12.9135427803658","77.540854836341"
"1154","VB BAKERY,MARUTHI NAGARA,IN FRONT OF U.B.B. BAKERY","12.9194050143413","77.5421845639245"
"1155","Srinivasa Kalyana Mantapa,ITTAMADU,OPPOSITE OF DOUBLE COCONUT TREES","12.9262316879","77.5445174519"
"1156","Hosakerahalli village,HOSAKEREHALLI,IN FRONT OF S.L.N.TYPING COMPUTER EDUCATION CENTER","12.9301350846743","77.5396913184673"
"1157","Minaz Nagara,MINAZ NAGARA,BESIDE MANJUNATHA BAKERY & MINHAJ MEDICALS","12.9121157248","77.561911745"
"1158","Vasantha Nagara Ambedkar Bhavan","12.99286195","77.59507843"
"1159","JC Nagara,MUNIREDDY PALYA","13.00384568","77.59357715"
"1160","Aralimara Sulthanpalya,SULTHANPALYA, RT NAGARA,IN FRONT OF RAMAKRISHNA APARTMENT","13.02474753992","77.6033484627041"
"1161","Sulthan Palya,RT NAGARA POST,IN FRONT OF SHIVA SWEETS & BAKERY","13.026588323118","77.6039092579361"
"1162","Mathikere","13.034203","77.557762"
"1163","Mathikere Post Office,MATHIKERE,IN FRONT OF SAI KRUPA HOSPITAL","13.0294036534176","77.559359366379"
"1164","Kamala Neharu Extension,YESHAWANTHAPURA,IN FRONT OF NEW STAR BEDDING HOUSE","13.0256143212","77.5576726813"
